{
   "type": "FeatureCollection",
   "features": [
  {
    "type": "Feature",
    "geometry": {
        "type": "Point",
        "coordinates":  [-89.50367824,43.04883798]
    },
    "properties": {
    "business_id":"_6MDHQQ-PeUJ9CP-MoKApA",
    "name":"Pancake Cafe",
    "city":"Madison",
    "attributes.Price Range":"2",
    "review_count":"36",
    "stars":"2.5",
    "cuisine":"Breakfast & Brunch",
    }
  },
  {
    "type": "Feature",
    "geometry": {
        "type": "Point",
        "coordinates":  [-89.4962001,43.0616294]
    },
    "properties": {
    "business_id":"_b-Q0ZVI30FfgPW_UtbLyw",
    "name":"North and South Seafood & Smokehouse",
    "city":"Madison",
    "attributes.Price Range":"2",
    "review_count":"40",
    "stars":"4",
    "cuisine":"Seafood",
    }
  },
  {
    "type": "Feature",
    "geometry": {
        "type": "Point",
        "coordinates":  [-89.356495,43.25312]
    },
    "properties": {
    "business_id":"_L6sbh9zs7f4s1EM_niQcA",
    "name":"Casey's General Store",
    "city":"Madison",
    "attributes.Price Range":"0",
    "review_count":"4",
    "stars":"5",
    "cuisine":"Pizza",
    }
  },
  {
    "type": "Feature",
    "geometry": {
        "type": "Point",
        "coordinates":  [-89.392125,43.0672802]
    },
    "properties": {
    "business_id":"_NW61hsQvk7u2E_xWiWyMQ",
    "name":"Main Depot Tavern",
    "city":"Madison",
    "attributes.Price Range":"1",
    "review_count":"11",
    "stars":"4",
    "cuisine":"American (Traditional)",
    }
  },
  {
    "type": "Feature",
    "geometry": {
        "type": "Point",
        "coordinates":  [-89.393353,43.072731]
    },
    "properties": {
    "business_id":"_WbZri6b9Wq4iofDm7CI9Q",
    "name":"Bassett Street Brunch Club",
    "city":"Madison",
    "attributes.Price Range":"2",
    "review_count":"302",
    "stars":"4",
    "cuisine":"Breakfast & Brunch",
    }
  },
  {
    "type": "Feature",
    "geometry": {
        "type": "Point",
        "coordinates":  [-89.50449837,43.06028788]
    },
    "properties": {
    "business_id":"_xeigHhwNOB6N1if3lQO3w",
    "name":"Olive Garden Italian Restaurant",
    "city":"Madison",
    "attributes.Price Range":"2",
    "review_count":"41",
    "stars":"3",
    "cuisine":"Italian",
    }
  },
  {
    "type": "Feature",
    "geometry": {
        "type": "Point",
        "coordinates":  [-89.5114326,43.0158469]
    },
    "properties": {
    "business_id":"_xssBWvthbdPh2KdAaAJSw",
    "name":"Glass Nickel Pizza",
    "city":"Madison",
    "attributes.Price Range":"2",
    "review_count":"26",
    "stars":"3",
    "cuisine":"Pizza",
    }
  },
  {
    "type": "Feature",
    "geometry": {
        "type": "Point",
        "coordinates":  [-89.3895712,43.0749456]
    },
    "properties": {
    "business_id":"_z9UrC5hCTBK1JIgQD0YDw",
    "name":"Noodles & Company",
    "city":"Madison",
    "attributes.Price Range":"1",
    "review_count":"56",
    "stars":"3.5",
    "cuisine":"Anonymous",
    }
  },
  {
    "type": "Feature",
    "geometry": {
        "type": "Point",
        "coordinates":  [-89.4137655,43.0749778]
    },
    "properties": {
    "business_id":"03yij332OZ6UNqajNgZsGA",
    "name":"Babcock Hall Dairy Store",
    "city":"Madison",
    "attributes.Price Range":"1",
    "review_count":"42",
    "stars":"4.5",
    "cuisine":"Anonymous",
    }
  },
  {
    "type": "Feature",
    "geometry": {
        "type": "Point",
        "coordinates":  [-89.25008,43.174555]
    },
    "properties": {
    "business_id":"04h3nxtkDfaKsJhrKRHZ-Q",
    "name":"Taco Bell",
    "city":"Madison",
    "attributes.Price Range":"1",
    "review_count":"12",
    "stars":"2",
    "cuisine":"Fast Food",
    }
  },
  {
    "type": "Feature",
    "geometry": {
        "type": "Point",
        "coordinates":  [-89.3027469,43.0839852]
    },
    "properties": {
    "business_id":"07cMlpbiOeiR8AP8JR0c_g",
    "name":"Milio's Sandwiches",
    "city":"Madison",
    "attributes.Price Range":"0",
    "review_count":"4",
    "stars":"3.5",
    "cuisine":"Anonymous",
    }
  },
  {
    "type": "Feature",
    "geometry": {
        "type": "Point",
        "coordinates":  [-89.4000633,43.0588605]
    },
    "properties": {
    "business_id":"08UPumc2Tr3trW8J5SCrow",
    "name":"El Rancho Mexican Grill",
    "city":"Madison",
    "attributes.Price Range":"1",
    "review_count":"30",
    "stars":"4.5",
    "cuisine":"Mexican",
    }
  },
  {
    "type": "Feature",
    "geometry": {
        "type": "Point",
        "coordinates":  [-89.518577,43.0755809]
    },
    "properties": {
    "business_id":"0CpLn6Sx7Gxv2_hThX3qzQ",
    "name":"New Seoul Korean",
    "city":"Madison",
    "attributes.Price Range":"2",
    "review_count":"27",
    "stars":"4",
    "cuisine":"Korean",
    }
  },
  {
    "type": "Feature",
    "geometry": {
        "type": "Point",
        "coordinates":  [-89.353881,43.092519]
    },
    "properties": {
    "business_id":"0DxeMAfznpqhxH1Z8O0_Yg",
    "name":"Magic Wok",
    "city":"Madison",
    "attributes.Price Range":"1",
    "review_count":"44",
    "stars":"4.5",
    "cuisine":"Chinese",
    }
  },
  {
    "type": "Feature",
    "geometry": {
        "type": "Point",
        "coordinates":  [-89.418612,43.023349]
    },
    "properties": {
    "business_id":"0IDIy6Ti9V4rKhX-WgWFHg",
    "name":"Curry in the Box",
    "city":"Madison",
    "attributes.Price Range":"1",
    "review_count":"66",
    "stars":"3.5",
    "cuisine":"Thai",
    }
  },
  {
    "type": "Feature",
    "geometry": {
        "type": "Point",
        "coordinates":  [-89.538978,42.989845]
    },
    "properties": {
    "business_id":"0iJhsBF_AkHsVUKCggWsQw",
    "name":"The Klassik Tavern",
    "city":"Madison",
    "attributes.Price Range":"2",
    "review_count":"21",
    "stars":"4",
    "cuisine":"American (Traditional)",
    }
  },
  {
    "type": "Feature",
    "geometry": {
        "type": "Point",
        "coordinates":  [-89.4012302,43.0730517]
    },
    "properties": {
    "business_id":"0ilFtvFUJ71JqiaVxIM-KA",
    "name":"Pots N Tots",
    "city":"Madison",
    "attributes.Price Range":"1",
    "review_count":"7",
    "stars":"4.5",
    "cuisine":"Anonymous",
    }
  },
  {
    "type": "Feature",
    "geometry": {
        "type": "Point",
        "coordinates":  [-89.4989583,43.056628]
    },
    "properties": {
    "business_id":"0lslsYnEVGDtXiM9V2GxWg",
    "name":"Ginza Of Tokyo",
    "city":"Madison",
    "attributes.Price Range":"2",
    "review_count":"56",
    "stars":"2.5",
    "cuisine":"American (New)",
    }
  },
  {
    "type": "Feature",
    "geometry": {
        "type": "Point",
        "coordinates":  [-89.4082936,43.0679737]
    },
    "properties": {
    "business_id":"0NNw9CHm0X8LJBvmIJvBIA",
    "name":"Jordan's Big Ten Pub",
    "city":"Madison",
    "attributes.Price Range":"2",
    "review_count":"69",
    "stars":"4.5",
    "cuisine":"American (Traditional)",
    }
  },
  {
    "type": "Feature",
    "geometry": {
        "type": "Point",
        "coordinates":  [-89.30969877,43.12540795]
    },
    "properties": {
    "business_id":"0oQFFOdPZycIBmGkoBrlbg",
    "name":"Noodles & Company",
    "city":"Madison",
    "attributes.Price Range":"1",
    "review_count":"34",
    "stars":"3.5",
    "cuisine":"Anonymous",
    }
  },
  {
    "type": "Feature",
    "geometry": {
        "type": "Point",
        "coordinates":  [-89.382498,43.0734008]
    },
    "properties": {
    "business_id":"0p3MbCriuvH9hgqRK9W-LA",
    "name":"Milio's Sandwiches",
    "city":"Madison",
    "attributes.Price Range":"1",
    "review_count":"5",
    "stars":"2.5",
    "cuisine":"Anonymous",
    }
  },
  {
    "type": "Feature",
    "geometry": {
        "type": "Point",
        "coordinates":  [-89.4727397,43.0739889]
    },
    "properties": {
    "business_id":"0pQhnZ5CV60lSKTQg2GKng",
    "name":"Oakcrest Tavern",
    "city":"Madison",
    "attributes.Price Range":"2",
    "review_count":"52",
    "stars":"4",
    "cuisine":"American (Traditional)",
    }
  },
  {
    "type": "Feature",
    "geometry": {
        "type": "Point",
        "coordinates":  [-89.394445,43.075131]
    },
    "properties": {
    "business_id":"0pXk2JkijBpi2Iz0D5pFXA",
    "name":"Kabul Restaurant",
    "city":"Madison",
    "attributes.Price Range":"2",
    "review_count":"133",
    "stars":"3.5",
    "cuisine":"Mediterranean",
    }
  },
  {
    "type": "Feature",
    "geometry": {
        "type": "Point",
        "coordinates":  [-89.4303415,43.0146691]
    },
    "properties": {
    "business_id":"0rj2xW1YKAbfHxe804Fefw",
    "name":"Benvenuto's Italian Grill",
    "city":"Madison",
    "attributes.Price Range":"2",
    "review_count":"51",
    "stars":"3",
    "cuisine":"Italian",
    }
  },
  {
    "type": "Feature",
    "geometry": {
        "type": "Point",
        "coordinates":  [-89.388805,43.0365968]
    },
    "properties": {
    "business_id":"0UL_ZuWauXthShF2mb9iKw",
    "name":"Pitcher's Pub",
    "city":"Madison",
    "attributes.Price Range":"1",
    "review_count":"15",
    "stars":"3.5",
    "cuisine":"American (Traditional)",
    }
  },
  {
    "type": "Feature",
    "geometry": {
        "type": "Point",
        "coordinates":  [-89.396178,43.075159]
    },
    "properties": {
    "business_id":"0wGWhZw81cIG7YjwghZhgw",
    "name":"Sunroom Cafe",
    "city":"Madison",
    "attributes.Price Range":"1",
    "review_count":"138",
    "stars":"3.5",
    "cuisine":"Breakfast & Brunch",
    }
  },
  {
    "type": "Feature",
    "geometry": {
        "type": "Point",
        "coordinates":  [-89.474125,43.0492844]
    },
    "properties": {
    "business_id":"0zaZp4Kqar6P4iG0ZfuftQ",
    "name":"The Seafood Center",
    "city":"Madison",
    "attributes.Price Range":"2",
    "review_count":"26",
    "stars":"4.5",
    "cuisine":"Seafood",
    }
  },
  {
    "type": "Feature",
    "geometry": {
        "type": "Point",
        "coordinates":  [-89.300914,43.132307]
    },
    "properties": {
    "business_id":"11yg-JMNCFowyIjJarzuDQ",
    "name":"Hardee's",
    "city":"Madison",
    "attributes.Price Range":"1",
    "review_count":"8",
    "stars":"3",
    "cuisine":"American (New)",
    }
  },
  {
    "type": "Feature",
    "geometry": {
        "type": "Point",
        "coordinates":  [-89.52554617,43.09078469]
    },
    "properties": {
    "business_id":"154tSL4P_0sblVtP7uP3_Q",
    "name":"Cosi",
    "city":"Madison",
    "attributes.Price Range":"1",
    "review_count":"35",
    "stars":"3",
    "cuisine":"Anonymous",
    }
  },
  {
    "type": "Feature",
    "geometry": {
        "type": "Point",
        "coordinates":  [-89.428248,43.0572208]
    },
    "properties": {
    "business_id":"1alcD9lDjwxDIcGaUh9oCw",
    "name":"Taste of India",
    "city":"Madison",
    "attributes.Price Range":"2",
    "review_count":"41",
    "stars":"4",
    "cuisine":"Indian",
    }
  },
  {
    "type": "Feature",
    "geometry": {
        "type": "Point",
        "coordinates":  [-89.52320934,43.08999255]
    },
    "properties": {
    "business_id":"1befOgRP6P_AwzA1K6RJ4A",
    "name":"Dickey's Barbecue Pit",
    "city":"Madison",
    "attributes.Price Range":"1",
    "review_count":"24",
    "stars":"3.5",
    "cuisine":"Barbeque",
    }
  },
  {
    "type": "Feature",
    "geometry": {
        "type": "Point",
        "coordinates":  [-89.5336701,42.9880198]
    },
    "properties": {
    "business_id":"-1BzcQK-HDA6LVOThHMpsw",
    "name":"AJ's Pizzeria and Diner",
    "city":"Madison",
    "attributes.Price Range":"2",
    "review_count":"17",
    "stars":"4",
    "cuisine":"Pizza",
    }
  },
  {
    "type": "Feature",
    "geometry": {
        "type": "Point",
        "coordinates":  [-89.1994343,43.0757247]
    },
    "properties": {
    "business_id":"1H0L1uJtQdgwCxFEC7q6Tw",
    "name":"Olde Town Coffee House",
    "city":"Madison",
    "attributes.Price Range":"2",
    "review_count":"13",
    "stars":"4",
    "cuisine":"Coffee & Tea",
    }
  },
  {
    "type": "Feature",
    "geometry": {
        "type": "Point",
        "coordinates":  [-89.4995195,43.0571457]
    },
    "properties": {
    "business_id":"1HbKFWG5QKzYkuNxig6H7w",
    "name":"Saigon Noodles",
    "city":"Madison",
    "attributes.Price Range":"1",
    "review_count":"253",
    "stars":"4",
    "cuisine":"Vietnamese",
    }
  },
  {
    "type": "Feature",
    "geometry": {
        "type": "Point",
        "coordinates":  [-89.5199061,43.0606248]
    },
    "properties": {
    "business_id":"1qz8Ws6tEu04X632x08pzg",
    "name":"Rocky Rococo Pan Style Pizza",
    "city":"Madison",
    "attributes.Price Range":"2",
    "review_count":"17",
    "stars":"2.5",
    "cuisine":"Pizza",
    }
  },
  {
    "type": "Feature",
    "geometry": {
        "type": "Point",
        "coordinates":  [-89.4130592,43.067354]
    },
    "properties": {
    "business_id":"1s5nBRc-6BqFT_1-ZaVVug",
    "name":"New Orleans Take-Out",
    "city":"Madison",
    "attributes.Price Range":"1",
    "review_count":"81",
    "stars":"4",
    "cuisine":"Anonymous",
    }
  },
  {
    "type": "Feature",
    "geometry": {
        "type": "Point",
        "coordinates":  [-89.47394002,43.04541242]
    },
    "properties": {
    "business_id":"1vXBMPl0It4jzUWBM-lJgA",
    "name":"Copper Top Restaurant",
    "city":"Madison",
    "attributes.Price Range":"1",
    "review_count":"22",
    "stars":"3",
    "cuisine":"Breakfast & Brunch",
    }
  },
  {
    "type": "Feature",
    "geometry": {
        "type": "Point",
        "coordinates":  [-89.39790994,43.07530521]
    },
    "properties": {
    "business_id":"1XbjMTMynhnMtqosQPS7CQ",
    "name":"Library Mall",
    "city":"Madison",
    "attributes.Price Range":"1",
    "review_count":"4",
    "stars":"5",
    "cuisine":"Anonymous",
    }
  },
  {
    "type": "Feature",
    "geometry": {
        "type": "Point",
        "coordinates":  [-89.30640341,43.13014194]
    },
    "properties": {
    "business_id":"1YEuqVtVMHdpavzoGcUUug",
    "name":"International House of Pancakes",
    "city":"Madison",
    "attributes.Price Range":"1",
    "review_count":"18",
    "stars":"2",
    "cuisine":"Breakfast & Brunch",
    }
  },
  {
    "type": "Feature",
    "geometry": {
        "type": "Point",
        "coordinates":  [-89.4736027,43.0499145]
    },
    "properties": {
    "business_id":"23RTangEll2MCb-xS571gg",
    "name":"Cafe Maya",
    "city":"Madison",
    "attributes.Price Range":"1",
    "review_count":"15",
    "stars":"4",
    "cuisine":"Coffee & Tea",
    }
  },
  {
    "type": "Feature",
    "geometry": {
        "type": "Point",
        "coordinates":  [-89.501621,43.057127]
    },
    "properties": {
    "business_id":"24_ltXORy8Taumt3NO9zsQ",
    "name":"McDonald's",
    "city":"Madison",
    "attributes.Price Range":"1",
    "review_count":"7",
    "stars":"2.5",
    "cuisine":"Burgers",
    }
  },
  {
    "type": "Feature",
    "geometry": {
        "type": "Point",
        "coordinates":  [-89.3267209,43.0602545]
    },
    "properties": {
    "business_id":"2aai1pIfThxDTTD_WwXHeA",
    "name":"Taste of China",
    "city":"Madison",
    "attributes.Price Range":"1",
    "review_count":"13",
    "stars":"2.5",
    "cuisine":"Chinese",
    }
  },
  {
    "type": "Feature",
    "geometry": {
        "type": "Point",
        "coordinates":  [-89.3943453,43.076974]
    },
    "properties": {
    "business_id":"2b_lt45uM8XMgX-weIJ3nA",
    "name":"MacTaggarts Market",
    "city":"Madison",
    "attributes.Price Range":"1",
    "review_count":"8",
    "stars":"4",
    "cuisine":"Anonymous",
    }
  },
  {
    "type": "Feature",
    "geometry": {
        "type": "Point",
        "coordinates":  [-89.394324,43.0751289]
    },
    "properties": {
    "business_id":"2B-pcUEMVkhghGAeuptxBA",
    "name":"Wendy's",
    "city":"Madison",
    "attributes.Price Range":"1",
    "review_count":"11",
    "stars":"1.5",
    "cuisine":"Burgers",
    }
  },
  {
    "type": "Feature",
    "geometry": {
        "type": "Point",
        "coordinates":  [-89.3865836,43.0756129]
    },
    "properties": {
    "business_id":"2hhUners_f_O2pGqSHr41A",
    "name":"CIRC",
    "city":"Madison",
    "attributes.Price Range":"2",
    "review_count":"6",
    "stars":"4",
    "cuisine":"Breakfast & Brunch",
    }
  },
  {
    "type": "Feature",
    "geometry": {
        "type": "Point",
        "coordinates":  [-89.37962415,43.07393002]
    },
    "properties": {
    "business_id":"2KiC2dj6rf3UWuvj6RPAgw",
    "name":"Tempest Oyster Bar",
    "city":"Madison",
    "attributes.Price Range":"3",
    "review_count":"157",
    "stars":"4",
    "cuisine":"Seafood",
    }
  },
  {
    "type": "Feature",
    "geometry": {
        "type": "Point",
        "coordinates":  [-89.30237976,43.13291034]
    },
    "properties": {
    "business_id":"2N4gFWxQYvhr9GfYiMyROg",
    "name":"Fast Biryani",
    "city":"Madison",
    "attributes.Price Range":"1",
    "review_count":"53",
    "stars":"4",
    "cuisine":"Indian",
    }
  },
  {
    "type": "Feature",
    "geometry": {
        "type": "Point",
        "coordinates":  [-89.228567,43.1886488]
    },
    "properties": {
    "business_id":"2pmMehsVKnwhgWPSOxrkjA",
    "name":"Panda Garden",
    "city":"Madison",
    "attributes.Price Range":"1",
    "review_count":"16",
    "stars":"3.5",
    "cuisine":"Chinese",
    }
  },
  {
    "type": "Feature",
    "geometry": {
        "type": "Point",
        "coordinates":  [-89.38302755,43.07398995]
    },
    "properties": {
    "business_id":"2pODeDkLYUSv0BBVkNoB9Q",
    "name":"Fib's Fine Italian Beef & Sausage",
    "city":"Madison",
    "attributes.Price Range":"1",
    "review_count":"18",
    "stars":"4.5",
    "cuisine":"Hot Dogs",
    }
  },
  {
    "type": "Feature",
    "geometry": {
        "type": "Point",
        "coordinates":  [-89.2998239,43.0843503]
    },
    "properties": {
    "business_id":"2sJ3f-1lKo3oL5URrAAhPw",
    "name":"Heritage Bakery & Cafe",
    "city":"Madison",
    "attributes.Price Range":"1",
    "review_count":"10",
    "stars":"3.5",
    "cuisine":"Cafes",
    }
  },
  {
    "type": "Feature",
    "geometry": {
        "type": "Point",
        "coordinates":  [-89.40930348,43.07325938]
    },
    "properties": {
    "business_id":"2uapF8uioz-DZ2Eq0eeXmQ",
    "name":"QQ Express",
    "city":"Madison",
    "attributes.Price Range":"1",
    "review_count":"37",
    "stars":"3.5",
    "cuisine":"Chinese",
    }
  },
  {
    "type": "Feature",
    "geometry": {
        "type": "Point",
        "coordinates":  [-89.3845477,43.07282564]
    },
    "properties": {
    "business_id":"2vsPceME9rHNZ9OkR5zrpg",
    "name":"The Paradise Lounge",
    "city":"Madison",
    "attributes.Price Range":"1",
    "review_count":"52",
    "stars":"4",
    "cuisine":"American (New)",
    }
  },
  {
    "type": "Feature",
    "geometry": {
        "type": "Point",
        "coordinates":  [-89.4099449,43.035492]
    },
    "properties": {
    "business_id":"2WxwgDMKm8XW6grbuMsDwg",
    "name":"Rocky Rococo Pan Style Pizza",
    "city":"Madison",
    "attributes.Price Range":"1",
    "review_count":"13",
    "stars":"2.5",
    "cuisine":"Pizza",
    }
  },
  {
    "type": "Feature",
    "geometry": {
        "type": "Point",
        "coordinates":  [-89.2115121,43.1828511]
    },
    "properties": {
    "business_id":"2WYBbV-VCKcnFemxWDZH_w",
    "name":"Atlantis Taverna",
    "city":"Madison",
    "attributes.Price Range":"2",
    "review_count":"57",
    "stars":"4.5",
    "cuisine":"Greek",
    }
  },
  {
    "type": "Feature",
    "geometry": {
        "type": "Point",
        "coordinates":  [-89.5235,43.09677]
    },
    "properties": {
    "business_id":"2xmRqCzVBfnoJPzBPnefyA",
    "name":"Taco Bell",
    "city":"Madison",
    "attributes.Price Range":"1",
    "review_count":"10",
    "stars":"3",
    "cuisine":"Fast Food",
    }
  },
  {
    "type": "Feature",
    "geometry": {
        "type": "Point",
        "coordinates":  [-89.4728803,43.0516249]
    },
    "properties": {
    "business_id":"2xRvgHdrm4X3myIFdp9Wew",
    "name":"Rocky Rococo",
    "city":"Madison",
    "attributes.Price Range":"1",
    "review_count":"9",
    "stars":"2.5",
    "cuisine":"Pizza",
    }
  },
  {
    "type": "Feature",
    "geometry": {
        "type": "Point",
        "coordinates":  [-89.3721028,43.0780958]
    },
    "properties": {
    "business_id":"3_dKevejfGY3eRj2xprRIQ",
    "name":"Ground Zero",
    "city":"Madison",
    "attributes.Price Range":"1",
    "review_count":"54",
    "stars":"4",
    "cuisine":"Coffee & Tea",
    }
  },
  {
    "type": "Feature",
    "geometry": {
        "type": "Point",
        "coordinates":  [-89.3921359,43.075006]
    },
    "properties": {
    "business_id":"30Wzq2Yjcnt8IGZteNOmEQ",
    "name":"Dragon I",
    "city":"Madison",
    "attributes.Price Range":"2",
    "review_count":"60",
    "stars":"2.5",
    "cuisine":"Chinese",
    }
  },
  {
    "type": "Feature",
    "geometry": {
        "type": "Point",
        "coordinates":  [-89.340903,43.104087]
    },
    "properties": {
    "business_id":"311yXufoXR2dFngMHS9MFg",
    "name":"McDonald's",
    "city":"Madison",
    "attributes.Price Range":"1",
    "review_count":"6",
    "stars":"3",
    "cuisine":"Burgers",
    }
  },
  {
    "type": "Feature",
    "geometry": {
        "type": "Point",
        "coordinates":  [-89.2667417,43.1864694]
    },
    "properties": {
    "business_id":"32TNAtF2XVRYr1W_0deWMw",
    "name":"Burrachos Fresh Mexican Grill",
    "city":"Madison",
    "attributes.Price Range":"1",
    "review_count":"15",
    "stars":"3",
    "cuisine":"Mexican",
    }
  },
  {
    "type": "Feature",
    "geometry": {
        "type": "Point",
        "coordinates":  [-89.2076187,43.1735465]
    },
    "properties": {
    "business_id":"36nl8e6-LK01TTNP33PcJQ",
    "name":"Willie Ty's Eatery",
    "city":"Madison",
    "attributes.Price Range":"2",
    "review_count":"30",
    "stars":"3.5",
    "cuisine":"Burgers",
    }
  },
  {
    "type": "Feature",
    "geometry": {
        "type": "Point",
        "coordinates":  [-89.209226,43.087207]
    },
    "properties": {
    "business_id":"-3fmY6IhikhUQXpiaLgxHA",
    "name":"McDonald's",
    "city":"Madison",
    "attributes.Price Range":"0",
    "review_count":"3",
    "stars":"1",
    "cuisine":"Burgers",
    }
  },
  {
    "type": "Feature",
    "geometry": {
        "type": "Point",
        "coordinates":  [-89.3116191,43.04854146]
    },
    "properties": {
    "business_id":"3ibpEbF2-n1nUeJ2gQBQFg",
    "name":"Denny's",
    "city":"Madison",
    "attributes.Price Range":"1",
    "review_count":"8",
    "stars":"3",
    "cuisine":"Breakfast & Brunch",
    }
  },
  {
    "type": "Feature",
    "geometry": {
        "type": "Point",
        "coordinates":  [-89.456344,43.035168]
    },
    "properties": {
    "business_id":"3Jq5cde5lN9tLPrrOUAEFw",
    "name":"Gino's Italian Deli",
    "city":"Madison",
    "attributes.Price Range":"1",
    "review_count":"54",
    "stars":"4",
    "cuisine":"Italian",
    }
  },
  {
    "type": "Feature",
    "geometry": {
        "type": "Point",
        "coordinates":  [-89.3925202,43.0748105]
    },
    "properties": {
    "business_id":"3KUwS1FedV0_L5y_D9YAiQ",
    "name":"Palmyra Mediterranean Grill",
    "city":"Madison",
    "attributes.Price Range":"1",
    "review_count":"57",
    "stars":"3.5",
    "cuisine":"Mediterranean",
    }
  },
  {
    "type": "Feature",
    "geometry": {
        "type": "Point",
        "coordinates":  [-89.5267274,43.0734853]
    },
    "properties": {
    "business_id":"3mEOCjX7s9mW4QUMqAAyOA",
    "name":"Pho Nam Noodle House",
    "city":"Madison",
    "attributes.Price Range":"1",
    "review_count":"100",
    "stars":"4",
    "cuisine":"Vietnamese",
    }
  },
  {
    "type": "Feature",
    "geometry": {
        "type": "Point",
        "coordinates":  [-89.364985,43.083166]
    },
    "properties": {
    "business_id":"3nwskbfFgsSjVe6T8keTeg",
    "name":"Lao Laan-Xang Restaurant",
    "city":"Madison",
    "attributes.Price Range":"2",
    "review_count":"234",
    "stars":"4.5",
    "cuisine":"Anonymous",
    }
  },
  {
    "type": "Feature",
    "geometry": {
        "type": "Point",
        "coordinates":  [-89.395633,43.0748669]
    },
    "properties": {
    "business_id":"3QGVEzjqBy8__fCuxN_e1g",
    "name":"Colectivo Coffee",
    "city":"Madison",
    "attributes.Price Range":"1",
    "review_count":"20",
    "stars":"3.5",
    "cuisine":"Coffee & Tea",
    }
  },
  {
    "type": "Feature",
    "geometry": {
        "type": "Point",
        "coordinates":  [-89.3617096,43.0853653]
    },
    "properties": {
    "business_id":"3SnqTPne49E5XSYv7BvYUw",
    "name":"Lazy Jane's",
    "city":"Madison",
    "attributes.Price Range":"1",
    "review_count":"206",
    "stars":"4",
    "cuisine":"Breakfast & Brunch",
    }
  },
  {
    "type": "Feature",
    "geometry": {
        "type": "Point",
        "coordinates":  [-89.52668,43.093647]
    },
    "properties": {
    "business_id":"3xVoQSgkPAd2i0GE3lHSZg",
    "name":"Johnny's Italian Steakhouse",
    "city":"Madison",
    "attributes.Price Range":"2",
    "review_count":"114",
    "stars":"3.5",
    "cuisine":"Steakhouses",
    }
  },
  {
    "type": "Feature",
    "geometry": {
        "type": "Point",
        "coordinates":  [-89.2271655,43.1878972]
    },
    "properties": {
    "business_id":"3zD6rxB92Mr0jb-LoYFFWw",
    "name":"Burger King",
    "city":"Madison",
    "attributes.Price Range":"1",
    "review_count":"21",
    "stars":"1.5",
    "cuisine":"Burgers",
    }
  },
  {
    "type": "Feature",
    "geometry": {
        "type": "Point",
        "coordinates":  [-89.4770529,43.0469205]
    },
    "properties": {
    "business_id":"3ZQmCHGtK6JNHlxaCeOx7g",
    "name":"Babes Grill & Bar",
    "city":"Madison",
    "attributes.Price Range":"2",
    "review_count":"63",
    "stars":"3.5",
    "cuisine":"American (New)",
    }
  },
  {
    "type": "Feature",
    "geometry": {
        "type": "Point",
        "coordinates":  [-89.522219,43.0902166]
    },
    "properties": {
    "business_id":"41F8e_RwXlmIe10j8Qbhrw",
    "name":"Five Guys Burgers and Fries",
    "city":"Madison",
    "attributes.Price Range":"2",
    "review_count":"27",
    "stars":"3.5",
    "cuisine":"Burgers",
    }
  },
  {
    "type": "Feature",
    "geometry": {
        "type": "Point",
        "coordinates":  [-89.41093105,43.0300117]
    },
    "properties": {
    "business_id":"41NDrs1MLZqh00kpwBOtxw",
    "name":"Popeyes Chicken and Biscuits",
    "city":"Madison",
    "attributes.Price Range":"1",
    "review_count":"13",
    "stars":"3",
    "cuisine":"Fast Food",
    }
  },
  {
    "type": "Feature",
    "geometry": {
        "type": "Point",
        "coordinates":  [-89.5288269,43.0019195]
    },
    "properties": {
    "business_id":"41yvEnuFyB1iVzKYGXbTMQ",
    "name":"Pasqual's",
    "city":"Madison",
    "attributes.Price Range":"2",
    "review_count":"36",
    "stars":"3",
    "cuisine":"Mexican",
    }
  },
  {
    "type": "Feature",
    "geometry": {
        "type": "Point",
        "coordinates":  [-89.3497288,43.0931608]
    },
    "properties": {
    "business_id":"4BDeQwomJF195VY93R6Cww",
    "name":"Barriques",
    "city":"Madison",
    "attributes.Price Range":"1",
    "review_count":"12",
    "stars":"3",
    "cuisine":"Coffee & Tea",
    }
  },
  {
    "type": "Feature",
    "geometry": {
        "type": "Point",
        "coordinates":  [-89.4209198,43.0344735]
    },
    "properties": {
    "business_id":"4buhMysOQJBM6dHx7TxuUw",
    "name":"The Egg & I",
    "city":"Madison",
    "attributes.Price Range":"1",
    "review_count":"77",
    "stars":"3",
    "cuisine":"Breakfast & Brunch",
    }
  },
  {
    "type": "Feature",
    "geometry": {
        "type": "Point",
        "coordinates":  [-89.51388891,43.05775833]
    },
    "properties": {
    "business_id":"4Db74Jsyp81bei99fo-3Xg",
    "name":"World Buffet",
    "city":"Madison",
    "attributes.Price Range":"2",
    "review_count":"40",
    "stars":"3",
    "cuisine":"Chinese",
    }
  },
  {
    "type": "Feature",
    "geometry": {
        "type": "Point",
        "coordinates":  [-89.426917,43.005696]
    },
    "properties": {
    "business_id":"4DC1iwWjbl__amO_pPFyAQ",
    "name":"Me & Julio",
    "city":"Madison",
    "attributes.Price Range":"2",
    "review_count":"38",
    "stars":"3",
    "cuisine":"American (Traditional)",
    }
  },
  {
    "type": "Feature",
    "geometry": {
        "type": "Point",
        "coordinates":  [-89.3904163,43.0754787]
    },
    "properties": {
    "business_id":"4dL8yzQu974eCtTI-V4Znw",
    "name":"Vientiane Palace Restaurant",
    "city":"Madison",
    "attributes.Price Range":"1",
    "review_count":"76",
    "stars":"3.5",
    "cuisine":"Thai",
    }
  },
  {
    "type": "Feature",
    "geometry": {
        "type": "Point",
        "coordinates":  [-89.390352,43.07438058]
    },
    "properties": {
    "business_id":"4eLcH5_DBlPb1NyuoQiRSw",
    "name":"Estrellón",
    "city":"Madison",
    "attributes.Price Range":"3",
    "review_count":"74",
    "stars":"4",
    "cuisine":"Cafes",
    }
  },
  {
    "type": "Feature",
    "geometry": {
        "type": "Point",
        "coordinates":  [-89.37861,43.075171]
    },
    "properties": {
    "business_id":"4F-mUkDJW2_Dtys7tv_GCA",
    "name":"Layla's Persian Food",
    "city":"Madison",
    "attributes.Price Range":"1",
    "review_count":"37",
    "stars":"4.5",
    "cuisine":"Middle Eastern",
    }
  },
  {
    "type": "Feature",
    "geometry": {
        "type": "Point",
        "coordinates":  [-89.2995085,43.1336297]
    },
    "properties": {
    "business_id":"4h7Fz2FeBu_KAx5FnFQ-Tg",
    "name":"Potbelly Sandwich Shop",
    "city":"Madison",
    "attributes.Price Range":"1",
    "review_count":"11",
    "stars":"2.5",
    "cuisine":"Anonymous",
    }
  },
  {
    "type": "Feature",
    "geometry": {
        "type": "Point",
        "coordinates":  [-89.351504,43.092992]
    },
    "properties": {
    "business_id":"-4PHmmCt_RmAfaE3sDKW_g",
    "name":"Mr Roberts",
    "city":"Madison",
    "attributes.Price Range":"1",
    "review_count":"16",
    "stars":"3.5",
    "cuisine":"Burgers",
    }
  },
  {
    "type": "Feature",
    "geometry": {
        "type": "Point",
        "coordinates":  [-89.3240256,43.046583]
    },
    "properties": {
    "business_id":"4pZeC9W0EIiBTOJMnwG2vw",
    "name":"Red Robin Gourmet Burgers",
    "city":"Madison",
    "attributes.Price Range":"2",
    "review_count":"51",
    "stars":"2.5",
    "cuisine":"Burgers",
    }
  },
  {
    "type": "Feature",
    "geometry": {
        "type": "Point",
        "coordinates":  [-89.524044,42.9959036]
    },
    "properties": {
    "business_id":"4PZwjwKcTbH4tWBiHz4s5Q",
    "name":"5th Quarter Sports Bar & Grill",
    "city":"Madison",
    "attributes.Price Range":"2",
    "review_count":"22",
    "stars":"3.5",
    "cuisine":"American (Traditional)",
    }
  },
  {
    "type": "Feature",
    "geometry": {
        "type": "Point",
        "coordinates":  [-89.30336322,43.08397675]
    },
    "properties": {
    "business_id":"4qWsQ5w7tenHTbR6s54GFw",
    "name":"Mr. Torta's",
    "city":"Madison",
    "attributes.Price Range":"1",
    "review_count":"10",
    "stars":"3.5",
    "cuisine":"Mexican",
    }
  },
  {
    "type": "Feature",
    "geometry": {
        "type": "Point",
        "coordinates":  [-89.3970368,43.0734676]
    },
    "properties": {
    "business_id":"4UsqmhU5wCmt1VnNyVoI7Q",
    "name":"Churchkey Bar and Grill",
    "city":"Madison",
    "attributes.Price Range":"1",
    "review_count":"20",
    "stars":"3.5",
    "cuisine":"American (Traditional)",
    }
  },
  {
    "type": "Feature",
    "geometry": {
        "type": "Point",
        "coordinates":  [-89.5178922,43.0759404]
    },
    "properties": {
    "business_id":"5_TX9FincQ29TOSLDfFxUQ",
    "name":"Oliva",
    "city":"Madison",
    "attributes.Price Range":"2",
    "review_count":"65",
    "stars":"3.5",
    "cuisine":"Italian",
    }
  },
  {
    "type": "Feature",
    "geometry": {
        "type": "Point",
        "coordinates":  [-89.3458236,43.2133742]
    },
    "properties": {
    "business_id":"57kf_KK1Lg7AIq0ozInH7Q",
    "name":"Papino's Ristorante and Pizzeria",
    "city":"Madison",
    "attributes.Price Range":"0",
    "review_count":"16",
    "stars":"3",
    "cuisine":"Pizza",
    }
  },
  {
    "type": "Feature",
    "geometry": {
        "type": "Point",
        "coordinates":  [-89.32132,43.083265]
    },
    "properties": {
    "business_id":"59HbIvjRvRyLfB8BnkoSYg",
    "name":"VFW Day Post 7591",
    "city":"Madison",
    "attributes.Price Range":"2",
    "review_count":"6",
    "stars":"4",
    "cuisine":"American (Traditional)",
    }
  },
  {
    "type": "Feature",
    "geometry": {
        "type": "Point",
        "coordinates":  [-89.5190145,43.0606086]
    },
    "properties": {
    "business_id":"5B0XAz8RhbuMDlRhot71mw",
    "name":"Jason's Deli",
    "city":"Madison",
    "attributes.Price Range":"1",
    "review_count":"26",
    "stars":"3.5",
    "cuisine":"Anonymous",
    }
  },
  {
    "type": "Feature",
    "geometry": {
        "type": "Point",
        "coordinates":  [-89.39042036,43.0743197]
    },
    "properties": {
    "business_id":"5debNXrXsKre_Xqxqm7GCg",
    "name":"Mr Brews Taphouse",
    "city":"Madison",
    "attributes.Price Range":"1",
    "review_count":"22",
    "stars":"3.5",
    "cuisine":"Burgers",
    }
  },
  {
    "type": "Feature",
    "geometry": {
        "type": "Point",
        "coordinates":  [-89.5101285,43.0607063]
    },
    "properties": {
    "business_id":"5grWBMD8Jt8vy-geV54e5Q",
    "name":"Culver's",
    "city":"Madison",
    "attributes.Price Range":"1",
    "review_count":"7",
    "stars":"2.5",
    "cuisine":"Burgers",
    }
  },
  {
    "type": "Feature",
    "geometry": {
        "type": "Point",
        "coordinates":  [-89.486019,43.061218]
    },
    "properties": {
    "business_id":"5m0OPZOPkohxh1D67M7ncA",
    "name":"Bruegger's Bagels",
    "city":"Madison",
    "attributes.Price Range":"1",
    "review_count":"15",
    "stars":"3.5",
    "cuisine":"Breakfast & Brunch",
    }
  },
  {
    "type": "Feature",
    "geometry": {
        "type": "Point",
        "coordinates":  [-89.2482376,43.1753699]
    },
    "properties": {
    "business_id":"5uxhIGZlJm9g_zfG_83z5Q",
    "name":"Peking Chinese Restaurant",
    "city":"Madison",
    "attributes.Price Range":"0",
    "review_count":"4",
    "stars":"3.5",
    "cuisine":"Chinese",
    }
  },
  {
    "type": "Feature",
    "geometry": {
        "type": "Point",
        "coordinates":  [-89.4049488,43.0363518]
    },
    "properties": {
    "business_id":"5w-qVzxUOGEajm9eH3gEkA",
    "name":"Parkway Family Restaurant",
    "city":"Madison",
    "attributes.Price Range":"1",
    "review_count":"22",
    "stars":"4",
    "cuisine":"Breakfast & Brunch",
    }
  },
  {
    "type": "Feature",
    "geometry": {
        "type": "Point",
        "coordinates":  [-89.524176,43.081537]
    },
    "properties": {
    "business_id":"-5xC7s9Ujg5F-3xFXtM_kg",
    "name":"Benvenuto's Italian Grill",
    "city":"Madison",
    "attributes.Price Range":"2",
    "review_count":"22",
    "stars":"2.5",
    "cuisine":"Italian",
    }
  },
  {
    "type": "Feature",
    "geometry": {
        "type": "Point",
        "coordinates":  [-89.435789,43.052916]
    },
    "properties": {
    "business_id":"5yDWNMFglisReWoTykOTRg",
    "name":"Gates & Brovi",
    "city":"Madison",
    "attributes.Price Range":"2",
    "review_count":"126",
    "stars":"3.5",
    "cuisine":"American (New)",
    }
  },
  {
    "type": "Feature",
    "geometry": {
        "type": "Point",
        "coordinates":  [-89.4536015,43.0352503]
    },
    "properties": {
    "business_id":"6091WcaSB2PnZ3Ag6eGCmg",
    "name":"Great Wall",
    "city":"Madison",
    "attributes.Price Range":"1",
    "review_count":"7",
    "stars":"4",
    "cuisine":"Chinese",
    }
  },
  {
    "type": "Feature",
    "geometry": {
        "type": "Point",
        "coordinates":  [-89.363442,43.111265]
    },
    "properties": {
    "business_id":"68JsiWNLKs8NDCrBCxIWMA",
    "name":"Esquire Club",
    "city":"Madison",
    "attributes.Price Range":"2",
    "review_count":"38",
    "stars":"3",
    "cuisine":"Steakhouses",
    }
  },
  {
    "type": "Feature",
    "geometry": {
        "type": "Point",
        "coordinates":  [-89.40739609,43.07263769]
    },
    "properties": {
    "business_id":"6BaQ2FZTDi2FYX9dIxWeJA",
    "name":"Steenbock's On Orchard",
    "city":"Madison",
    "attributes.Price Range":"3",
    "review_count":"45",
    "stars":"3.5",
    "cuisine":"American (New)",
    }
  },
  {
    "type": "Feature",
    "geometry": {
        "type": "Point",
        "coordinates":  [-89.4081342,43.0717653]
    },
    "properties": {
    "business_id":"6fDr0uxQ6HahgzMq0EkUXQ",
    "name":"Ginger Root",
    "city":"Madison",
    "attributes.Price Range":"1",
    "review_count":"11",
    "stars":"2.5",
    "cuisine":"Asian Fusion",
    }
  },
  {
    "type": "Feature",
    "geometry": {
        "type": "Point",
        "coordinates":  [-89.2128523,43.1835114]
    },
    "properties": {
    "business_id":"6GcKYcihd0psn7qY_bHMgQ",
    "name":"House of Mei",
    "city":"Madison",
    "attributes.Price Range":"1",
    "review_count":"44",
    "stars":"4",
    "cuisine":"Chinese",
    }
  },
  {
    "type": "Feature",
    "geometry": {
        "type": "Point",
        "coordinates":  [-89.3436886,43.0970189]
    },
    "properties": {
    "business_id":"6jCcIZcdhNPVep1oeUvegg",
    "name":"Ironworks Cafe",
    "city":"Madison",
    "attributes.Price Range":"1",
    "review_count":"20",
    "stars":"3.5",
    "cuisine":"Cafes",
    }
  },
  {
    "type": "Feature",
    "geometry": {
        "type": "Point",
        "coordinates":  [-89.5023902,43.051062]
    },
    "properties": {
    "business_id":"6LNptbDHEKFDOpiJ7f-QYQ",
    "name":"Wendy's",
    "city":"Madison",
    "attributes.Price Range":"1",
    "review_count":"9",
    "stars":"3",
    "cuisine":"Burgers",
    }
  },
  {
    "type": "Feature",
    "geometry": {
        "type": "Point",
        "coordinates":  [-89.5014542,43.0844617]
    },
    "properties": {
    "business_id":"6oDZ78JiSKjXVLcurCpnhw",
    "name":"Nitty Gritty Middleton",
    "city":"Madison",
    "attributes.Price Range":"2",
    "review_count":"28",
    "stars":"3",
    "cuisine":"American (Traditional)",
    }
  },
  {
    "type": "Feature",
    "geometry": {
        "type": "Point",
        "coordinates":  [-89.49836,43.0571089]
    },
    "properties": {
    "business_id":"6PuVFIL1rF5E-qu0Wq-Gug",
    "name":"VIP",
    "city":"Madison",
    "attributes.Price Range":"2",
    "review_count":"141",
    "stars":"3.5",
    "cuisine":"Sushi Bars",
    }
  },
  {
    "type": "Feature",
    "geometry": {
        "type": "Point",
        "coordinates":  [-89.5186717,43.0757768]
    },
    "properties": {
    "business_id":"6pYw00nLXSFTAsFngeB2Pw",
    "name":"TnT's Coffee & Cafe",
    "city":"Madison",
    "attributes.Price Range":"1",
    "review_count":"40",
    "stars":"3.5",
    "cuisine":"Breakfast & Brunch",
    }
  },
  {
    "type": "Feature",
    "geometry": {
        "type": "Point",
        "coordinates":  [-89.38322067,43.07349621]
    },
    "properties": {
    "business_id":"6QR-mdYPWJ9WuN7-xtTfQg",
    "name":"El Burrito Loco",
    "city":"Madison",
    "attributes.Price Range":"1",
    "review_count":"3",
    "stars":"4",
    "cuisine":"Mexican",
    }
  },
  {
    "type": "Feature",
    "geometry": {
        "type": "Point",
        "coordinates":  [-89.545425,42.988809]
    },
    "properties": {
    "business_id":"6YfLUTHFWdjZeMwsXTU1ww",
    "name":"Dragon City",
    "city":"Madison",
    "attributes.Price Range":"1",
    "review_count":"13",
    "stars":"3",
    "cuisine":"Chinese",
    }
  },
  {
    "type": "Feature",
    "geometry": {
        "type": "Point",
        "coordinates":  [-89.4476184,43.0748779]
    },
    "properties": {
    "business_id":"7489EuoDxHS432D2n4TCXQ",
    "name":"Curry in the Box",
    "city":"Madison",
    "attributes.Price Range":"1",
    "review_count":"47",
    "stars":"3.5",
    "cuisine":"Thai",
    }
  },
  {
    "type": "Feature",
    "geometry": {
        "type": "Point",
        "coordinates":  [-89.3108083,43.1224002]
    },
    "properties": {
    "business_id":"75hp1dHtMxLGbunwDZq7Cw",
    "name":"Maharana Indian Restaurant",
    "city":"Madison",
    "attributes.Price Range":"2",
    "review_count":"63",
    "stars":"4",
    "cuisine":"Seafood",
    }
  },
  {
    "type": "Feature",
    "geometry": {
        "type": "Point",
        "coordinates":  [-89.394966,43.072826]
    },
    "properties": {
    "business_id":"7dlX9oOy3o1_MPV-t7wTSA",
    "name":"Papa John's Pizza",
    "city":"Madison",
    "attributes.Price Range":"2",
    "review_count":"8",
    "stars":"3",
    "cuisine":"Pizza",
    }
  },
  {
    "type": "Feature",
    "geometry": {
        "type": "Point",
        "coordinates":  [-89.4242797,43.0165752]
    },
    "properties": {
    "business_id":"7NMvQUStQYd0ArBNnqAWtg",
    "name":"Tuscany Mediterranean Grill",
    "city":"Madison",
    "attributes.Price Range":"2",
    "review_count":"23",
    "stars":"3",
    "cuisine":"Greek",
    }
  },
  {
    "type": "Feature",
    "geometry": {
        "type": "Point",
        "coordinates":  [-89.345698,43.093665]
    },
    "properties": {
    "business_id":"7TqO3HEI7NJF_WGKwgPCaA",
    "name":"Next Door Brewing Company",
    "city":"Madison",
    "attributes.Price Range":"2",
    "review_count":"104",
    "stars":"3.5",
    "cuisine":"Anonymous",
    }
  },
  {
    "type": "Feature",
    "geometry": {
        "type": "Point",
        "coordinates":  [-89.34890946,43.10083732]
    },
    "properties": {
    "business_id":"7uoxZ35biPZfl8m5w2_XRA",
    "name":"Papa John's Pizza",
    "city":"Madison",
    "attributes.Price Range":"2",
    "review_count":"5",
    "stars":"4",
    "cuisine":"Pizza",
    }
  },
  {
    "type": "Feature",
    "geometry": {
        "type": "Point",
        "coordinates":  [-89.5126,43.0604]
    },
    "properties": {
    "business_id":"85GaloTNAYNl3hF87CPdkg",
    "name":"KFC",
    "city":"Madison",
    "attributes.Price Range":"0",
    "review_count":"8",
    "stars":"2.5",
    "cuisine":"Fast Food",
    }
  },
  {
    "type": "Feature",
    "geometry": {
        "type": "Point",
        "coordinates":  [-89.3229722,43.1173463]
    },
    "properties": {
    "business_id":"89O2bCyo92IpEEvgFXqOMw",
    "name":"Cousins Subs",
    "city":"Madison",
    "attributes.Price Range":"1",
    "review_count":"3",
    "stars":"3.5",
    "cuisine":"Anonymous",
    }
  },
  {
    "type": "Feature",
    "geometry": {
        "type": "Point",
        "coordinates":  [-89.305583,43.047206]
    },
    "properties": {
    "business_id":"8AGIIxZ-BBHbEGsgmhOOwA",
    "name":"Arby's",
    "city":"Madison",
    "attributes.Price Range":"1",
    "review_count":"6",
    "stars":"2.5",
    "cuisine":"Burgers",
    }
  },
  {
    "type": "Feature",
    "geometry": {
        "type": "Point",
        "coordinates":  [-89.5292944,43.0907884]
    },
    "properties": {
    "business_id":"8D5bGc3ScnJS-oyV_vye6g",
    "name":"Fuddruckers",
    "city":"Madison",
    "attributes.Price Range":"2",
    "review_count":"20",
    "stars":"3.5",
    "cuisine":"Burgers",
    }
  },
  {
    "type": "Feature",
    "geometry": {
        "type": "Point",
        "coordinates":  [-89.384011,43.072631]
    },
    "properties": {
    "business_id":"8GlGakyGqp9WvToKcnJmxg",
    "name":"Nostrano",
    "city":"Madison",
    "attributes.Price Range":"3",
    "review_count":"174",
    "stars":"4",
    "cuisine":"Italian",
    }
  },
  {
    "type": "Feature",
    "geometry": {
        "type": "Point",
        "coordinates":  [-89.4798753,43.0156312]
    },
    "properties": {
    "business_id":"8Khkf1BmXmalNT_J6iKFvw",
    "name":"Topper's Pizza",
    "city":"Madison",
    "attributes.Price Range":"2",
    "review_count":"12",
    "stars":"2.5",
    "cuisine":"Pizza",
    }
  },
  {
    "type": "Feature",
    "geometry": {
        "type": "Point",
        "coordinates":  [-89.5032438,43.0496415]
    },
    "properties": {
    "business_id":"8sYsE-RIvdubisaa69PxiA",
    "name":"La Bamba",
    "city":"Madison",
    "attributes.Price Range":"1",
    "review_count":"47",
    "stars":"3",
    "cuisine":"Mexican",
    }
  },
  {
    "type": "Feature",
    "geometry": {
        "type": "Point",
        "coordinates":  [-89.4106017,43.0675794]
    },
    "properties": {
    "business_id":"8wj6i7lHo9R4gPaXrxpWRw",
    "name":"Campus Biryani & Gyros",
    "city":"Madison",
    "attributes.Price Range":"1",
    "review_count":"34",
    "stars":"1.5",
    "cuisine":"Indian",
    }
  },
  {
    "type": "Feature",
    "geometry": {
        "type": "Point",
        "coordinates":  [-89.3959172,43.0734189]
    },
    "properties": {
    "business_id":"8XHad9b3D7Zynt5ZkrQK7w",
    "name":"Wando's",
    "city":"Madison",
    "attributes.Price Range":"1",
    "review_count":"55",
    "stars":"3",
    "cuisine":"American (Traditional)",
    }
  },
  {
    "type": "Feature",
    "geometry": {
        "type": "Point",
        "coordinates":  [-89.4148895,43.0256771]
    },
    "properties": {
    "business_id":"9B9xy9bPJbxxST_xxteZmw",
    "name":"Little Caesar's Pizza",
    "city":"Madison",
    "attributes.Price Range":"1",
    "review_count":"6",
    "stars":"3.5",
    "cuisine":"Pizza",
    }
  },
  {
    "type": "Feature",
    "geometry": {
        "type": "Point",
        "coordinates":  [-89.267983,43.1668835]
    },
    "properties": {
    "business_id":"9CK32E4OjQnBJblWB5QsZQ",
    "name":"Arby's",
    "city":"Madison",
    "attributes.Price Range":"0",
    "review_count":"3",
    "stars":"3.5",
    "cuisine":"Fast Food",
    }
  },
  {
    "type": "Feature",
    "geometry": {
        "type": "Point",
        "coordinates":  [-89.3869838,43.0747315]
    },
    "properties": {
    "business_id":"9GHHH-edaSLwKZahZTdM3g",
    "name":"Wisconsin Brewing Tap Haus",
    "city":"Madison",
    "attributes.Price Range":"2",
    "review_count":"94",
    "stars":"3",
    "cuisine":"American (Traditional)",
    }
  },
  {
    "type": "Feature",
    "geometry": {
        "type": "Point",
        "coordinates":  [-89.4430321,43.075277]
    },
    "properties": {
    "business_id":"9gLWzc8CWu-LsrpLXrTWeA",
    "name":"Great Harvest Bread Company",
    "city":"Madison",
    "attributes.Price Range":"1",
    "review_count":"20",
    "stars":"4.5",
    "cuisine":"Cafes",
    }
  },
  {
    "type": "Feature",
    "geometry": {
        "type": "Point",
        "coordinates":  [-89.3772786,43.0756543]
    },
    "properties": {
    "business_id":"9GUN0cEAK6ysOz0oGhCK8A",
    "name":"Plaka Taverna",
    "city":"Madison",
    "attributes.Price Range":"1",
    "review_count":"79",
    "stars":"4",
    "cuisine":"Greek",
    }
  },
  {
    "type": "Feature",
    "geometry": {
        "type": "Point",
        "coordinates":  [-89.287972,43.1470709]
    },
    "properties": {
    "business_id":"9hf_gSaDn3cdLsE6vTsUfw",
    "name":"Happy Wok",
    "city":"Madison",
    "attributes.Price Range":"1",
    "review_count":"11",
    "stars":"4",
    "cuisine":"Chinese",
    }
  },
  {
    "type": "Feature",
    "geometry": {
        "type": "Point",
        "coordinates":  [-89.3694529,43.085589]
    },
    "properties": {
    "business_id":"9ofDKryDCTnkAZXKzLcQ8w",
    "name":"Avenue Club and the Bubble Up Bar",
    "city":"Madison",
    "attributes.Price Range":"2",
    "review_count":"81",
    "stars":"3.5",
    "cuisine":"American (Traditional)",
    }
  },
  {
    "type": "Feature",
    "geometry": {
        "type": "Point",
        "coordinates":  [-89.4081342,43.0719139]
    },
    "properties": {
    "business_id":"9p1o6jCY4fkQAJRmEjgSMw",
    "name":"The Sett",
    "city":"Madison",
    "attributes.Price Range":"1",
    "review_count":"16",
    "stars":"4",
    "cuisine":"American (New)",
    }
  },
  {
    "type": "Feature",
    "geometry": {
        "type": "Point",
        "coordinates":  [-89.38398812,43.07628569]
    },
    "properties": {
    "business_id":"9Tjj3Zg-PPFCIUB_ITe30A",
    "name":"Ladonia Cafe",
    "city":"Madison",
    "attributes.Price Range":"1",
    "review_count":"12",
    "stars":"5",
    "cuisine":"Anonymous",
    }
  },
  {
    "type": "Feature",
    "geometry": {
        "type": "Point",
        "coordinates":  [-89.3551271,43.0920578]
    },
    "properties": {
    "business_id":"9TSU0S-4Ni3cjrJFrdQLeg",
    "name":"Chocolaterian Cafe",
    "city":"Madison",
    "attributes.Price Range":"1",
    "review_count":"97",
    "stars":"4.5",
    "cuisine":"Coffee & Tea",
    }
  },
  {
    "type": "Feature",
    "geometry": {
        "type": "Point",
        "coordinates":  [-89.301399,43.131951]
    },
    "properties": {
    "business_id":"9uS7KnxzXV_-ZJMk_2rUSA",
    "name":"Hooters",
    "city":"Madison",
    "attributes.Price Range":"2",
    "review_count":"22",
    "stars":"3",
    "cuisine":"American (Traditional)",
    }
  },
  {
    "type": "Feature",
    "geometry": {
        "type": "Point",
        "coordinates":  [-89.35198279,43.09283269]
    },
    "properties": {
    "business_id":"9vcPZJKD46IkBlFuU4Z-Dg",
    "name":"Lao Laan-Xang",
    "city":"Madison",
    "attributes.Price Range":"2",
    "review_count":"80",
    "stars":"3.5",
    "cuisine":"Thai",
    }
  },
  {
    "type": "Feature",
    "geometry": {
        "type": "Point",
        "coordinates":  [-89.3043221,43.1280801]
    },
    "properties": {
    "business_id":"9vgu6o1CwP5NakVkb29z0g",
    "name":"Sarku Japan",
    "city":"Madison",
    "attributes.Price Range":"1",
    "review_count":"6",
    "stars":"4.5",
    "cuisine":"Japanese",
    }
  },
  {
    "type": "Feature",
    "geometry": {
        "type": "Point",
        "coordinates":  [-89.4853769,43.1014856]
    },
    "properties": {
    "business_id":"9vr4pVexU8hhnbQBJECzmg",
    "name":"Mid Town Pub",
    "city":"Madison",
    "attributes.Price Range":"2",
    "review_count":"46",
    "stars":"4",
    "cuisine":"American (Traditional)",
    }
  },
  {
    "type": "Feature",
    "geometry": {
        "type": "Point",
        "coordinates":  [-89.2387305,43.1782088]
    },
    "properties": {
    "business_id":"9wsv3WwH0HtwPvD8XCdT_g",
    "name":"Culver's Frozen Custard",
    "city":"Madison",
    "attributes.Price Range":"1",
    "review_count":"9",
    "stars":"4",
    "cuisine":"Fast Food",
    }
  },
  {
    "type": "Feature",
    "geometry": {
        "type": "Point",
        "coordinates":  [-89.3537663,43.0923102]
    },
    "properties": {
    "business_id":"9xncPz8c0hQp1wXZNyZynQ",
    "name":"Milio's Subs",
    "city":"Madison",
    "attributes.Price Range":"0",
    "review_count":"3",
    "stars":"2.5",
    "cuisine":"Anonymous",
    }
  },
  {
    "type": "Feature",
    "geometry": {
        "type": "Point",
        "coordinates":  [-89.4740771,43.0495471]
    },
    "properties": {
    "business_id":"9yDl7MtVdwC_f-wq-_elBw",
    "name":"Nonno's Ristorante Italiano",
    "city":"Madison",
    "attributes.Price Range":"2",
    "review_count":"64",
    "stars":"4",
    "cuisine":"Italian",
    }
  },
  {
    "type": "Feature",
    "geometry": {
        "type": "Point",
        "coordinates":  [-89.511939,43.096159]
    },
    "properties": {
    "business_id":"a1RJtImq30iLs4oxM--QKA",
    "name":"The Free House Pub",
    "city":"Madison",
    "attributes.Price Range":"2",
    "review_count":"96",
    "stars":"4",
    "cuisine":"American (Traditional)",
    }
  },
  {
    "type": "Feature",
    "geometry": {
        "type": "Point",
        "coordinates":  [-89.495487,43.058414]
    },
    "properties": {
    "business_id":"A32mYktgckODsMR3gM3hRQ",
    "name":"Legends Sports Bar & Grill",
    "city":"Madison",
    "attributes.Price Range":"2",
    "review_count":"17",
    "stars":"3",
    "cuisine":"American (Traditional)",
    }
  },
  {
    "type": "Feature",
    "geometry": {
        "type": "Point",
        "coordinates":  [-89.3906964,43.0748011]
    },
    "properties": {
    "business_id":"A3ZK7esn3oKG5O3OEWMHiw",
    "name":"Himal Chuli",
    "city":"Madison",
    "attributes.Price Range":"2",
    "review_count":"176",
    "stars":"4",
    "cuisine":"Anonymous",
    }
  },
  {
    "type": "Feature",
    "geometry": {
        "type": "Point",
        "coordinates":  [-89.404538,43.068007]
    },
    "properties": {
    "business_id":"a5FttSCTWbAZmfkIkUENJw",
    "name":"McDonald's",
    "city":"Madison",
    "attributes.Price Range":"1",
    "review_count":"14",
    "stars":"3",
    "cuisine":"Burgers",
    }
  },
  {
    "type": "Feature",
    "geometry": {
        "type": "Point",
        "coordinates":  [-89.305994,43.120559]
    },
    "properties": {
    "business_id":"a66CtYcUgVjXy57GcoDOXg",
    "name":"Journey Sushi & Seafood Buffet",
    "city":"Madison",
    "attributes.Price Range":"2",
    "review_count":"117",
    "stars":"3.5",
    "cuisine":"Seafood",
    }
  },
  {
    "type": "Feature",
    "geometry": {
        "type": "Point",
        "coordinates":  [-89.3967531,43.0749023]
    },
    "properties": {
    "business_id":"aaYR5kTMqgRGVtTr1kKmKw",
    "name":"Chipotle Mexican Grill",
    "city":"Madison",
    "attributes.Price Range":"1",
    "review_count":"34",
    "stars":"4",
    "cuisine":"Fast Food",
    }
  },
  {
    "type": "Feature",
    "geometry": {
        "type": "Point",
        "coordinates":  [-89.3768109,43.0838052]
    },
    "properties": {
    "business_id":"aCMhR8XTu-f8GgMHYl0ipA",
    "name":"Sophia's Bakery & Cafe",
    "city":"Madison",
    "attributes.Price Range":"1",
    "review_count":"177",
    "stars":"4.5",
    "cuisine":"Breakfast & Brunch",
    }
  },
  {
    "type": "Feature",
    "geometry": {
        "type": "Point",
        "coordinates":  [-89.36579,43.0819293]
    },
    "properties": {
    "business_id":"aE0Wo8zNiFcxvlsNRgR0dw",
    "name":"Mother Fool's Coffeehouse",
    "city":"Madison",
    "attributes.Price Range":"1",
    "review_count":"69",
    "stars":"3.5",
    "cuisine":"Coffee & Tea",
    }
  },
  {
    "type": "Feature",
    "geometry": {
        "type": "Point",
        "coordinates":  [-89.3240091,43.0785876]
    },
    "properties": {
    "business_id":"Agr28_3DohGpTAD0NGS95Q",
    "name":"Crema Cafe",
    "city":"Madison",
    "attributes.Price Range":"1",
    "review_count":"139",
    "stars":"4",
    "cuisine":"Breakfast & Brunch",
    }
  },
  {
    "type": "Feature",
    "geometry": {
        "type": "Point",
        "coordinates":  [-89.3930193,43.0381071]
    },
    "properties": {
    "business_id":"Aie1Q9OT6OTRY0cuvX7ZyQ",
    "name":"Burger King",
    "city":"Madison",
    "attributes.Price Range":"1",
    "review_count":"3",
    "stars":"4.5",
    "cuisine":"Fast Food",
    }
  },
  {
    "type": "Feature",
    "geometry": {
        "type": "Point",
        "coordinates":  [-89.3547317,43.0920977]
    },
    "properties": {
    "business_id":"Aio5aGXkf0aEeGCcSpWkRg",
    "name":"Tex Tubb's Taco Palace",
    "city":"Madison",
    "attributes.Price Range":"2",
    "review_count":"227",
    "stars":"3.5",
    "cuisine":"Mexican",
    }
  },
  {
    "type": "Feature",
    "geometry": {
        "type": "Point",
        "coordinates":  [-89.3946639,43.0395114]
    },
    "properties": {
    "business_id":"ALE6n4ec-_JvopWx5de7PA",
    "name":"McDonald's",
    "city":"Madison",
    "attributes.Price Range":"1",
    "review_count":"7",
    "stars":"1",
    "cuisine":"Burgers",
    }
  },
  {
    "type": "Feature",
    "geometry": {
        "type": "Point",
        "coordinates":  [-89.47901,43.015264]
    },
    "properties": {
    "business_id":"ALwQeM5E8kpsB6AfSmzW0w",
    "name":"Taco Bell",
    "city":"Madison",
    "attributes.Price Range":"1",
    "review_count":"10",
    "stars":"1.5",
    "cuisine":"Fast Food",
    }
  },
  {
    "type": "Feature",
    "geometry": {
        "type": "Point",
        "coordinates":  [-89.506801,43.0562479]
    },
    "properties": {
    "business_id":"aMxgW7RlILhF-vcD-sihhg",
    "name":"Granite City Food & Brewery",
    "city":"Madison",
    "attributes.Price Range":"2",
    "review_count":"119",
    "stars":"3.5",
    "cuisine":"American (Traditional)",
    }
  },
  {
    "type": "Feature",
    "geometry": {
        "type": "Point",
        "coordinates":  [-89.4374257,43.0741404]
    },
    "properties": {
    "business_id":"aqnvzRlSMlW5OX9A-qipLA",
    "name":"IHOP",
    "city":"Madison",
    "attributes.Price Range":"1",
    "review_count":"25",
    "stars":"2.5",
    "cuisine":"Breakfast & Brunch",
    }
  },
  {
    "type": "Feature",
    "geometry": {
        "type": "Point",
        "coordinates":  [-89.4141559,43.0253194]
    },
    "properties": {
    "business_id":"AwilCbbfLRp4bx5agP9Qmg",
    "name":"Dairy Queen",
    "city":"Madison",
    "attributes.Price Range":"1",
    "review_count":"9",
    "stars":"3",
    "cuisine":"Fast Food",
    }
  },
  {
    "type": "Feature",
    "geometry": {
        "type": "Point",
        "coordinates":  [-89.43009758,43.0725542]
    },
    "properties": {
    "business_id":"AwQorTMV_hspc7Y6D_bFmw",
    "name":"Oliver's Public House",
    "city":"Madison",
    "attributes.Price Range":"2",
    "review_count":"111",
    "stars":"3.5",
    "cuisine":"Breakfast & Brunch",
    }
  },
  {
    "type": "Feature",
    "geometry": {
        "type": "Point",
        "coordinates":  [-89.3858351,43.0752003]
    },
    "properties": {
    "business_id":"aybLDQRhUwOr7WoQfdofPQ",
    "name":"Rare Steakhouse",
    "city":"Madison",
    "attributes.Price Range":"4",
    "review_count":"111",
    "stars":"4",
    "cuisine":"Steakhouses",
    }
  },
  {
    "type": "Feature",
    "geometry": {
        "type": "Point",
        "coordinates":  [-89.45202,43.038073]
    },
    "properties": {
    "business_id":"B_K4A2gIK7Q8rPmBDYI86w",
    "name":"Taqueria El Jalapeño",
    "city":"Madison",
    "attributes.Price Range":"1",
    "review_count":"53",
    "stars":"4",
    "cuisine":"Mexican",
    }
  },
  {
    "type": "Feature",
    "geometry": {
        "type": "Point",
        "coordinates":  [-89.48674,43.102896]
    },
    "properties": {
    "business_id":"B0Vuwn6Hugc-0U5n31YBfg",
    "name":"C's Restaurant Bakery and Coffee Shop",
    "city":"Madison",
    "attributes.Price Range":"1",
    "review_count":"28",
    "stars":"4",
    "cuisine":"American (Traditional)",
    }
  },
  {
    "type": "Feature",
    "geometry": {
        "type": "Point",
        "coordinates":  [-89.383068,43.070715]
    },
    "properties": {
    "business_id":"b1Rosp3eIyRKgSbr6Axg1Q",
    "name":"Paisan's",
    "city":"Madison",
    "attributes.Price Range":"2",
    "review_count":"115",
    "stars":"3",
    "cuisine":"Pizza",
    }
  },
  {
    "type": "Feature",
    "geometry": {
        "type": "Point",
        "coordinates":  [-89.2403448,43.1778077]
    },
    "properties": {
    "business_id":"b3HiA0pIJ-qIUfXwqIvAZQ",
    "name":"Anna's Pizzeria",
    "city":"Madison",
    "attributes.Price Range":"2",
    "review_count":"16",
    "stars":"4.5",
    "cuisine":"Pizza",
    }
  },
  {
    "type": "Feature",
    "geometry": {
        "type": "Point",
        "coordinates":  [-89.4003925,43.0678314]
    },
    "properties": {
    "business_id":"b3ZOCcD_bU9Tfv21o9ThBQ",
    "name":"Fraboni's Italian Specialties & Delicatessen",
    "city":"Madison",
    "attributes.Price Range":"1",
    "review_count":"25",
    "stars":"3.5",
    "cuisine":"Italian",
    }
  },
  {
    "type": "Feature",
    "geometry": {
        "type": "Point",
        "coordinates":  [-89.501014,43.0965066]
    },
    "properties": {
    "business_id":"b4Kh-7FujnNDeA1z9X8KFw",
    "name":"Amber Indian Cuisine",
    "city":"Madison",
    "attributes.Price Range":"2",
    "review_count":"47",
    "stars":"4.5",
    "cuisine":"Indian",
    }
  },
  {
    "type": "Feature",
    "geometry": {
        "type": "Point",
        "coordinates":  [-89.563016,43.07987414]
    },
    "properties": {
    "business_id":"B5n_4U72uoZ3mkZeQCt9RQ",
    "name":"Cousins Subs",
    "city":"Madison",
    "attributes.Price Range":"1",
    "review_count":"4",
    "stars":"3",
    "cuisine":"Anonymous",
    }
  },
  {
    "type": "Feature",
    "geometry": {
        "type": "Point",
        "coordinates":  [-89.3215271,43.0471185]
    },
    "properties": {
    "business_id":"bAKErQneMNuEThzhMgXFJw",
    "name":"Buffalo Wild Wings",
    "city":"Madison",
    "attributes.Price Range":"2",
    "review_count":"37",
    "stars":"2",
    "cuisine":"American (Traditional)",
    }
  },
  {
    "type": "Feature",
    "geometry": {
        "type": "Point",
        "coordinates":  [-89.50213641,43.05824316]
    },
    "properties": {
    "business_id":"BcSaNiXBsGaxdnZU096QTg",
    "name":"Denny's",
    "city":"Madison",
    "attributes.Price Range":"1",
    "review_count":"17",
    "stars":"2.5",
    "cuisine":"Breakfast & Brunch",
    }
  },
  {
    "type": "Feature",
    "geometry": {
        "type": "Point",
        "coordinates":  [-89.410727,43.067569]
    },
    "properties": {
    "business_id":"BfiU8hGgUpNNm7t-ljnwmw",
    "name":"Hong Kong Station",
    "city":"Madison",
    "attributes.Price Range":"2",
    "review_count":"34",
    "stars":"3.5",
    "cuisine":"Chinese",
    }
  },
  {
    "type": "Feature",
    "geometry": {
        "type": "Point",
        "coordinates":  [-89.20992002,43.18091065]
    },
    "properties": {
    "business_id":"BfnwW7f18N4J0MD-bnh1zQ",
    "name":"Day One Pizza",
    "city":"Madison",
    "attributes.Price Range":"1",
    "review_count":"14",
    "stars":"3.5",
    "cuisine":"Pizza",
    }
  },
  {
    "type": "Feature",
    "geometry": {
        "type": "Point",
        "coordinates":  [-89.42332515,43.01809085]
    },
    "properties": {
    "business_id":"bFosvxlK1PWI6dqvIKpQ5w",
    "name":"The Great Dane",
    "city":"Madison",
    "attributes.Price Range":"2",
    "review_count":"88",
    "stars":"3.5",
    "cuisine":"American (Traditional)",
    }
  },
  {
    "type": "Feature",
    "geometry": {
        "type": "Point",
        "coordinates":  [-89.416839,43.0647939]
    },
    "properties": {
    "business_id":"Bgsr91YOV0F48h0OUCgciA",
    "name":"Brocach",
    "city":"Madison",
    "attributes.Price Range":"2",
    "review_count":"69",
    "stars":"3.5",
    "cuisine":"Breakfast & Brunch",
    }
  },
  {
    "type": "Feature",
    "geometry": {
        "type": "Point",
        "coordinates":  [-89.4274219,43.0144173]
    },
    "properties": {
    "business_id":"bjbkbKup-HqkkWRrEOk2cg",
    "name":"Laredo's Mexican Restaurant",
    "city":"Madison",
    "attributes.Price Range":"2",
    "review_count":"39",
    "stars":"3",
    "cuisine":"Mexican",
    }
  },
  {
    "type": "Feature",
    "geometry": {
        "type": "Point",
        "coordinates":  [-89.523381,43.0896909]
    },
    "properties": {
    "business_id":"bldyAKdfvulwDRZNu0OwTg",
    "name":"World Of Beer",
    "city":"Madison",
    "attributes.Price Range":"2",
    "review_count":"27",
    "stars":"3.5",
    "cuisine":"American (Traditional)",
    }
  },
  {
    "type": "Feature",
    "geometry": {
        "type": "Point",
        "coordinates":  [-89.389124,43.0719143]
    },
    "properties": {
    "business_id":"Blv95aU63EQSMw7wH9xSQA",
    "name":"Maharani Restaurant",
    "city":"Madison",
    "attributes.Price Range":"2",
    "review_count":"164",
    "stars":"3.5",
    "cuisine":"Indian",
    }
  },
  {
    "type": "Feature",
    "geometry": {
        "type": "Point",
        "coordinates":  [-89.3711024,43.0782582]
    },
    "properties": {
    "business_id":"BoYuRrfyC6qQSaJFrgAWWg",
    "name":"Chez Nanou",
    "city":"Madison",
    "attributes.Price Range":"2",
    "review_count":"46",
    "stars":"4",
    "cuisine":"French",
    }
  },
  {
    "type": "Feature",
    "geometry": {
        "type": "Point",
        "coordinates":  [-89.487044,43.103449]
    },
    "properties": {
    "business_id":"BPftTf2ZNidSaeyyXcxhdg",
    "name":"Subway",
    "city":"Madison",
    "attributes.Price Range":"1",
    "review_count":"3",
    "stars":"3",
    "cuisine":"Fast Food",
    }
  },
  {
    "type": "Feature",
    "geometry": {
        "type": "Point",
        "coordinates":  [-89.4752687,43.0828269]
    },
    "properties": {
    "business_id":"Br9o4CNzhwUw4YUHseGA-g",
    "name":"Buck's Pizza",
    "city":"Madison",
    "attributes.Price Range":"1",
    "review_count":"19",
    "stars":"3.5",
    "cuisine":"Pizza",
    }
  },
  {
    "type": "Feature",
    "geometry": {
        "type": "Point",
        "coordinates":  [-89.3253853,43.0703762]
    },
    "properties": {
    "business_id":"brkJrGv2Eaj9NTl9g2RMgA",
    "name":"Rocky Rococo Pan Style Pizza",
    "city":"Madison",
    "attributes.Price Range":"1",
    "review_count":"5",
    "stars":"2.5",
    "cuisine":"Pizza",
    }
  },
  {
    "type": "Feature",
    "geometry": {
        "type": "Point",
        "coordinates":  [-89.50921282,43.11055436]
    },
    "properties": {
    "business_id":"BtqIbQ44Pa7-4pAIfPnc9Q",
    "name":"Falbo Bros. Pizzeria",
    "city":"Madison",
    "attributes.Price Range":"2",
    "review_count":"27",
    "stars":"3.5",
    "cuisine":"Pizza",
    }
  },
  {
    "type": "Feature",
    "geometry": {
        "type": "Point",
        "coordinates":  [-89.5135245,43.0596333]
    },
    "properties": {
    "business_id":"BUIrO-pCTTgMGQcAj2qyrA",
    "name":"Helbachs Coffee House",
    "city":"Madison",
    "attributes.Price Range":"1",
    "review_count":"27",
    "stars":"4",
    "cuisine":"Coffee & Tea",
    }
  },
  {
    "type": "Feature",
    "geometry": {
        "type": "Point",
        "coordinates":  [-89.3254346,43.0698529]
    },
    "properties": {
    "business_id":"BVgnavF-B0wxQhP7wJTAVg",
    "name":"Rosie's Coffee Bar & Bakery",
    "city":"Madison",
    "attributes.Price Range":"1",
    "review_count":"63",
    "stars":"4",
    "cuisine":"Coffee & Tea",
    }
  },
  {
    "type": "Feature",
    "geometry": {
        "type": "Point",
        "coordinates":  [-89.3737397,43.0477179]
    },
    "properties": {
    "business_id":"BwQiwAZTHjmoBY0yO06inQ",
    "name":"Heartland Grill",
    "city":"Madison",
    "attributes.Price Range":"2",
    "review_count":"9",
    "stars":"3",
    "cuisine":"American (Traditional)",
    }
  },
  {
    "type": "Feature",
    "geometry": {
        "type": "Point",
        "coordinates":  [-89.3956943,43.0734337]
    },
    "properties": {
    "business_id":"BZukyg37Vf7j0oLJC24LHg",
    "name":"Erbert and Gerbert's",
    "city":"Madison",
    "attributes.Price Range":"1",
    "review_count":"15",
    "stars":"3.5",
    "cuisine":"Anonymous",
    }
  },
  {
    "type": "Feature",
    "geometry": {
        "type": "Point",
        "coordinates":  [-89.3908579,43.074663]
    },
    "properties": {
    "business_id":"c1cGCn1syl9_c6XKEu4Mhg",
    "name":"Irish Pub",
    "city":"Madison",
    "attributes.Price Range":"1",
    "review_count":"15",
    "stars":"3.5",
    "cuisine":"American (Traditional)",
    }
  },
  {
    "type": "Feature",
    "geometry": {
        "type": "Point",
        "coordinates":  [-89.4924119,43.0936159]
    },
    "properties": {
    "business_id":"c2KtIwcnEh99YWZsRgq4zQ",
    "name":"Sonic",
    "city":"Madison",
    "attributes.Price Range":"1",
    "review_count":"30",
    "stars":"2.5",
    "cuisine":"Fast Food",
    }
  },
  {
    "type": "Feature",
    "geometry": {
        "type": "Point",
        "coordinates":  [-89.4781127,43.0319838]
    },
    "properties": {
    "business_id":"c2ZluDaHbes0-ZgvZyurBw",
    "name":"Chang Jiang Restaurant",
    "city":"Madison",
    "attributes.Price Range":"1",
    "review_count":"27",
    "stars":"3.5",
    "cuisine":"Chinese",
    }
  },
  {
    "type": "Feature",
    "geometry": {
        "type": "Point",
        "coordinates":  [-89.2087999,43.0866447]
    },
    "properties": {
    "business_id":"C4sdA4Eu7D8VMRPAnUgoSA",
    "name":"Xiang Jiang",
    "city":"Madison",
    "attributes.Price Range":"1",
    "review_count":"9",
    "stars":"4",
    "cuisine":"Chinese",
    }
  },
  {
    "type": "Feature",
    "geometry": {
        "type": "Point",
        "coordinates":  [-89.4925824,43.1033362]
    },
    "properties": {
    "business_id":"c5awCF5eu0ZkxUf_i94uPA",
    "name":"Bristled Boar Saloon & Grill",
    "city":"Madison",
    "attributes.Price Range":"1",
    "review_count":"22",
    "stars":"3.5",
    "cuisine":"American (Traditional)",
    }
  },
  {
    "type": "Feature",
    "geometry": {
        "type": "Point",
        "coordinates":  [-89.3633256,43.1077779]
    },
    "properties": {
    "business_id":"C6NHEs8gWDzLFdpy59B-zA",
    "name":"Jacobson Bros Meats & Deli",
    "city":"Madison",
    "attributes.Price Range":"1",
    "review_count":"4",
    "stars":"3.5",
    "cuisine":"Anonymous",
    }
  },
  {
    "type": "Feature",
    "geometry": {
        "type": "Point",
        "coordinates":  [-89.4015806,43.0676801]
    },
    "properties": {
    "business_id":"C70R_7VBmd4WHCZp1B9i1A",
    "name":"OSS Madison",
    "city":"Madison",
    "attributes.Price Range":"1",
    "review_count":"112",
    "stars":"4.5",
    "cuisine":"American (New)",
    }
  },
  {
    "type": "Feature",
    "geometry": {
        "type": "Point",
        "coordinates":  [-89.4976638,43.0506402]
    },
    "properties": {
    "business_id":"C8eIJ_fuWhUUERCSaTZehg",
    "name":"ZenZen Taste \u56db\u5408\u9662",
    "city":"Madison",
    "attributes.Price Range":"2",
    "review_count":"17",
    "stars":"4",
    "cuisine":"Asian Fusion",
    }
  },
  {
    "type": "Feature",
    "geometry": {
        "type": "Point",
        "coordinates":  [-89.3955327,43.0748656]
    },
    "properties": {
    "business_id":"cap_lFiLgcHbyteGoHicIA",
    "name":"MOOYAH Burgers  Fries & Shakes",
    "city":"Madison",
    "attributes.Price Range":"1",
    "review_count":"18",
    "stars":"3.5",
    "cuisine":"Burgers",
    }
  },
  {
    "type": "Feature",
    "geometry": {
        "type": "Point",
        "coordinates":  [-89.3162,43.084]
    },
    "properties": {
    "business_id":"cCStad4wX3ADPbz5AHCn9g",
    "name":"KFC",
    "city":"Madison",
    "attributes.Price Range":"2",
    "review_count":"7",
    "stars":"1.5",
    "cuisine":"Fast Food",
    }
  },
  {
    "type": "Feature",
    "geometry": {
        "type": "Point",
        "coordinates":  [-89.5298466,43.0749188]
    },
    "properties": {
    "business_id":"cFZj6p-KEiAZokMPbjuMRA",
    "name":"Novanta",
    "city":"Madison",
    "attributes.Price Range":"1",
    "review_count":"116",
    "stars":"4.5",
    "cuisine":"Italian",
    }
  },
  {
    "type": "Feature",
    "geometry": {
        "type": "Point",
        "coordinates":  [-89.4964192,43.0614686]
    },
    "properties": {
    "business_id":"cG-wWJPO6MCuphYIqVcLsQ",
    "name":"Rosati's Pizza",
    "city":"Madison",
    "attributes.Price Range":"1",
    "review_count":"69",
    "stars":"3.5",
    "cuisine":"Pizza",
    }
  },
  {
    "type": "Feature",
    "geometry": {
        "type": "Point",
        "coordinates":  [-89.4009947,43.0608425]
    },
    "properties": {
    "business_id":"CgZG8x59kWo4-wVt5vHT4w",
    "name":"Inka Heritage",
    "city":"Madison",
    "attributes.Price Range":"2",
    "review_count":"162",
    "stars":"4",
    "cuisine":"Seafood",
    }
  },
  {
    "type": "Feature",
    "geometry": {
        "type": "Point",
        "coordinates":  [-89.299625,43.0174542]
    },
    "properties": {
    "business_id":"cIGbQ0evZMaBGBt1am4hAQ",
    "name":"McDonald's",
    "city":"Madison",
    "attributes.Price Range":"1",
    "review_count":"3",
    "stars":"4",
    "cuisine":"Burgers",
    }
  },
  {
    "type": "Feature",
    "geometry": {
        "type": "Point",
        "coordinates":  [-89.315492,43.0485599]
    },
    "properties": {
    "business_id":"CiZ_j-Hq5WK5WOW_zB7WZg",
    "name":"Green Forest Family Restaurant",
    "city":"Madison",
    "attributes.Price Range":"1",
    "review_count":"8",
    "stars":"4",
    "cuisine":"Breakfast & Brunch",
    }
  },
  {
    "type": "Feature",
    "geometry": {
        "type": "Point",
        "coordinates":  [-89.38695031,43.07489166]
    },
    "properties": {
    "business_id":"ckliJ8meY4ZMF6aQUb8PYw",
    "name":"Ian's Pizza",
    "city":"Madison",
    "attributes.Price Range":"1",
    "review_count":"308",
    "stars":"4",
    "cuisine":"Pizza",
    }
  },
  {
    "type": "Feature",
    "geometry": {
        "type": "Point",
        "coordinates":  [-89.3914096,43.0682028]
    },
    "properties": {
    "business_id":"CLW4LJCYbAkwlgNWB2rVbQ",
    "name":"Echo Tap & Grill",
    "city":"Madison",
    "attributes.Price Range":"1",
    "review_count":"71",
    "stars":"4",
    "cuisine":"American (Traditional)",
    }
  },
  {
    "type": "Feature",
    "geometry": {
        "type": "Point",
        "coordinates":  [-89.38207,43.075721]
    },
    "properties": {
    "business_id":"cmv6wUUe-H0xRiFEY0__iQ",
    "name":"Graze",
    "city":"Madison",
    "attributes.Price Range":"2",
    "review_count":"719",
    "stars":"4",
    "cuisine":"American (New)",
    }
  },
  {
    "type": "Feature",
    "geometry": {
        "type": "Point",
        "coordinates":  [-89.4759564,43.0833692]
    },
    "properties": {
    "business_id":"cnc5Fu-xE1CKLI_bh7P01g",
    "name":"Original Pancake House",
    "city":"Madison",
    "attributes.Price Range":"2",
    "review_count":"110",
    "stars":"4",
    "cuisine":"Breakfast & Brunch",
    }
  },
  {
    "type": "Feature",
    "geometry": {
        "type": "Point",
        "coordinates":  [-89.5054669,43.0571911]
    },
    "properties": {
    "business_id":"cnvVpOF0pC0QuvANdCpoMQ",
    "name":"The Cheesecake Factory",
    "city":"Madison",
    "attributes.Price Range":"2",
    "review_count":"88",
    "stars":"3",
    "cuisine":"American (Traditional)",
    }
  },
  {
    "type": "Feature",
    "geometry": {
        "type": "Point",
        "coordinates":  [-89.36446667,43.09843453]
    },
    "properties": {
    "business_id":"cpGv6ES2hzPCtCUQgipwXw",
    "name":"New Orleans Take-Out",
    "city":"Madison",
    "attributes.Price Range":"1",
    "review_count":"58",
    "stars":"4",
    "cuisine":"Seafood",
    }
  },
  {
    "type": "Feature",
    "geometry": {
        "type": "Point",
        "coordinates":  [-89.45763702,43.01497105]
    },
    "properties": {
    "business_id":"cQNRW64fLhkVV2yQyqHkGA",
    "name":"Barriques Market",
    "city":"Madison",
    "attributes.Price Range":"2",
    "review_count":"56",
    "stars":"4",
    "cuisine":"Coffee & Tea",
    }
  },
  {
    "type": "Feature",
    "geometry": {
        "type": "Point",
        "coordinates":  [-89.3943638,43.0714537]
    },
    "properties": {
    "business_id":"CQRYL_4Mu3215d1F_C0Qpg",
    "name":"Badgerland Bar & Grill",
    "city":"Madison",
    "attributes.Price Range":"2",
    "review_count":"17",
    "stars":"3",
    "cuisine":"Burgers",
    }
  },
  {
    "type": "Feature",
    "geometry": {
        "type": "Point",
        "coordinates":  [-89.326148,43.056329]
    },
    "properties": {
    "business_id":"cRqZ_w9ImfYYIXTHpJMv0Q",
    "name":"Silver Eagle Bar & Grill",
    "city":"Madison",
    "attributes.Price Range":"1",
    "review_count":"22",
    "stars":"3",
    "cuisine":"American (Traditional)",
    }
  },
  {
    "type": "Feature",
    "geometry": {
        "type": "Point",
        "coordinates":  [-89.4945693,43.0956809]
    },
    "properties": {
    "business_id":"cruBFtsFaBuhX_I72uU8pA",
    "name":"Papa John's Pizza",
    "city":"Madison",
    "attributes.Price Range":"2",
    "review_count":"6",
    "stars":"1.5",
    "cuisine":"Pizza",
    }
  },
  {
    "type": "Feature",
    "geometry": {
        "type": "Point",
        "coordinates":  [-89.4770054,43.011847]
    },
    "properties": {
    "business_id":"CshTEcwHhtL7uxs888cLzA",
    "name":"Pancake Cafe",
    "city":"Madison",
    "attributes.Price Range":"2",
    "review_count":"102",
    "stars":"3",
    "cuisine":"Breakfast & Brunch",
    }
  },
  {
    "type": "Feature",
    "geometry": {
        "type": "Point",
        "coordinates":  [-89.4012302,43.0730517]
    },
    "properties": {
    "business_id":"ct5sMv_fhZLNOt_ymNpXZQ",
    "name":"Jakarta Cafe",
    "city":"Madison",
    "attributes.Price Range":"0",
    "review_count":"3",
    "stars":"2.5",
    "cuisine":"Anonymous",
    }
  },
  {
    "type": "Feature",
    "geometry": {
        "type": "Point",
        "coordinates":  [-89.4864793,43.1035495]
    },
    "properties": {
    "business_id":"ctqKknbWggtDnO2tVbfINQ",
    "name":"Abarrotes Yuremi",
    "city":"Madison",
    "attributes.Price Range":"1",
    "review_count":"13",
    "stars":"4.5",
    "cuisine":"Mexican",
    }
  },
  {
    "type": "Feature",
    "geometry": {
        "type": "Point",
        "coordinates":  [-89.386276,43.075216]
    },
    "properties": {
    "business_id":"CU5d1QN2A5cgcR9zmLVS0g",
    "name":"The Cooper's Tavern",
    "city":"Madison",
    "attributes.Price Range":"2",
    "review_count":"306",
    "stars":"3.5",
    "cuisine":"American (New)",
    }
  },
  {
    "type": "Feature",
    "geometry": {
        "type": "Point",
        "coordinates":  [-89.266473,43.166656]
    },
    "properties": {
    "business_id":"CUsXA3zDKOpSMxyfaaOmTw",
    "name":"Rocky Rococo Pan Style Pizza",
    "city":"Madison",
    "attributes.Price Range":"1",
    "review_count":"10",
    "stars":"2",
    "cuisine":"Pizza",
    }
  },
  {
    "type": "Feature",
    "geometry": {
        "type": "Point",
        "coordinates":  [-89.383313,43.076622]
    },
    "properties": {
    "business_id":"cwrf67GWlXnwNDEY0iiTgw",
    "name":"Sol's On the Square",
    "city":"Madison",
    "attributes.Price Range":"2",
    "review_count":"74",
    "stars":"3.5",
    "cuisine":"Korean",
    }
  },
  {
    "type": "Feature",
    "geometry": {
        "type": "Point",
        "coordinates":  [-89.211447,43.182386]
    },
    "properties": {
    "business_id":"cZr9IrNzMydiMT9tdtCGtA",
    "name":"Market Street Diner",
    "city":"Madison",
    "attributes.Price Range":"2",
    "review_count":"72",
    "stars":"3.5",
    "cuisine":"Anonymous",
    }
  },
  {
    "type": "Feature",
    "geometry": {
        "type": "Point",
        "coordinates":  [-89.2070621,43.0861154]
    },
    "properties": {
    "business_id":"d24w8_TEu1QamA3qFI5JMw",
    "name":"Black Bear Inn",
    "city":"Madison",
    "attributes.Price Range":"2",
    "review_count":"12",
    "stars":"3.5",
    "cuisine":"Anonymous",
    }
  },
  {
    "type": "Feature",
    "geometry": {
        "type": "Point",
        "coordinates":  [-89.42265676,43.01819755]
    },
    "properties": {
    "business_id":"D2A394AkwlntDC5vIbASyg",
    "name":"SoHo Gourmet Cuisines",
    "city":"Madison",
    "attributes.Price Range":"1",
    "review_count":"36",
    "stars":"4.5",
    "cuisine":"Asian Fusion",
    }
  },
  {
    "type": "Feature",
    "geometry": {
        "type": "Point",
        "coordinates":  [-89.387383,43.075041]
    },
    "properties": {
    "business_id":"D3a0vrdXzT_UkbPNhK8f7w",
    "name":"The Fountain",
    "city":"Madison",
    "attributes.Price Range":"2",
    "review_count":"70",
    "stars":"3.5",
    "cuisine":"American (Traditional)",
    }
  },
  {
    "type": "Feature",
    "geometry": {
        "type": "Point",
        "coordinates":  [-89.4120136,43.0275937]
    },
    "properties": {
    "business_id":"D4KioPzFvBwb04Pf7rtCeA",
    "name":"Pizza Pit",
    "city":"Madison",
    "attributes.Price Range":"1",
    "review_count":"10",
    "stars":"2.5",
    "cuisine":"Pizza",
    }
  },
  {
    "type": "Feature",
    "geometry": {
        "type": "Point",
        "coordinates":  [-89.52448028,43.0714329]
    },
    "properties": {
    "business_id":"de0hIDLks3ROJQtmSJWWPw",
    "name":"Minerva Indian Cuisine",
    "city":"Madison",
    "attributes.Price Range":"2",
    "review_count":"59",
    "stars":"4",
    "cuisine":"Indian",
    }
  },
  {
    "type": "Feature",
    "geometry": {
        "type": "Point",
        "coordinates":  [-89.2351404,43.1793095]
    },
    "properties": {
    "business_id":"DffW-HjpvUAf4Flm7XInyw",
    "name":"El Patron Mexican Grill",
    "city":"Madison",
    "attributes.Price Range":"2",
    "review_count":"30",
    "stars":"3.5",
    "cuisine":"Mexican",
    }
  },
  {
    "type": "Feature",
    "geometry": {
        "type": "Point",
        "coordinates":  [-89.3266104,43.0476672]
    },
    "properties": {
    "business_id":"DFHKNQ7N7mIQFLwEtSF-fw",
    "name":"Mr. Brews Taphouse",
    "city":"Madison",
    "attributes.Price Range":"2",
    "review_count":"16",
    "stars":"4",
    "cuisine":"Burgers",
    }
  },
  {
    "type": "Feature",
    "geometry": {
        "type": "Point",
        "coordinates":  [-89.414181,43.067141]
    },
    "properties": {
    "business_id":"dgGpvbTjAWet0YPJ3kDJiA",
    "name":"Pizza Pit Extreme",
    "city":"Madison",
    "attributes.Price Range":"2",
    "review_count":"26",
    "stars":"3.5",
    "cuisine":"Pizza",
    }
  },
  {
    "type": "Feature",
    "geometry": {
        "type": "Point",
        "coordinates":  [-89.3129833,43.1234113]
    },
    "properties": {
    "business_id":"DgKTPEdH5yk552xBU5lgCw",
    "name":"Rocky's Party Pizzeria",
    "city":"Madison",
    "attributes.Price Range":"2",
    "review_count":"7",
    "stars":"2.5",
    "cuisine":"Pizza",
    }
  },
  {
    "type": "Feature",
    "geometry": {
        "type": "Point",
        "coordinates":  [-89.47128966,43.07834429]
    },
    "properties": {
    "business_id":"dgq6Y3t81Hq3Og-qd4C5Ew",
    "name":"Perkins Restaurant & Bakery",
    "city":"Madison",
    "attributes.Price Range":"2",
    "review_count":"15",
    "stars":"3",
    "cuisine":"American (Traditional)",
    }
  },
  {
    "type": "Feature",
    "geometry": {
        "type": "Point",
        "coordinates":  [-89.3935416,43.0730621]
    },
    "properties": {
    "business_id":"dHZw7fvo69r9v9hY_J_g1g",
    "name":"Madistan",
    "city":"Madison",
    "attributes.Price Range":"1",
    "review_count":"36",
    "stars":"4",
    "cuisine":"Mediterranean",
    }
  },
  {
    "type": "Feature",
    "geometry": {
        "type": "Point",
        "coordinates":  [-89.523051,43.086346]
    },
    "properties": {
    "business_id":"di0k415NkTOQp6mZ6AbTOQ",
    "name":"Sprecher's Restaurant and Pub",
    "city":"Madison",
    "attributes.Price Range":"2",
    "review_count":"135",
    "stars":"3",
    "cuisine":"American (Traditional)",
    }
  },
  {
    "type": "Feature",
    "geometry": {
        "type": "Point",
        "coordinates":  [-89.4239575,43.0676879]
    },
    "properties": {
    "business_id":"DInchTMpKhM-G52cNKLtOg",
    "name":"Humble",
    "city":"Madison",
    "attributes.Price Range":"1",
    "review_count":"31",
    "stars":"4.5",
    "cuisine":"Anonymous",
    }
  },
  {
    "type": "Feature",
    "geometry": {
        "type": "Point",
        "coordinates":  [-89.26385298,43.18538426]
    },
    "properties": {
    "business_id":"dkgNL4LAIyKexAIRQy7Yew",
    "name":"Sonic",
    "city":"Madison",
    "attributes.Price Range":"1",
    "review_count":"28",
    "stars":"2",
    "cuisine":"Fast Food",
    }
  },
  {
    "type": "Feature",
    "geometry": {
        "type": "Point",
        "coordinates":  [-89.52035,42.99464]
    },
    "properties": {
    "business_id":"dKZguiNXV0ZPQLLqDt84Og",
    "name":"Mr. Brews Taphouse",
    "city":"Madison",
    "attributes.Price Range":"2",
    "review_count":"32",
    "stars":"4",
    "cuisine":"American (Traditional)",
    }
  },
  {
    "type": "Feature",
    "geometry": {
        "type": "Point",
        "coordinates":  [-89.4906724,43.0600543]
    },
    "properties": {
    "business_id":"dOo_jUaYeHC4b6bgOytinw",
    "name":"Otto's Restaurant & Bar",
    "city":"Madison",
    "attributes.Price Range":"3",
    "review_count":"61",
    "stars":"4",
    "cuisine":"Seafood",
    }
  },
  {
    "type": "Feature",
    "geometry": {
        "type": "Point",
        "coordinates":  [-89.3745611,43.0769499]
    },
    "properties": {
    "business_id":"DR4xcr3eJ0vfYRomvx036w",
    "name":"Wah Kee Wonton Noodle",
    "city":"Madison",
    "attributes.Price Range":"1",
    "review_count":"121",
    "stars":"4",
    "cuisine":"Cantonese",
    }
  },
  {
    "type": "Feature",
    "geometry": {
        "type": "Point",
        "coordinates":  [-89.391323,43.074154]
    },
    "properties": {
    "business_id":"dtghBwhGk0czWIpc_6KCbA",
    "name":"Red Rock Saloon",
    "city":"Madison",
    "attributes.Price Range":"2",
    "review_count":"38",
    "stars":"3.5",
    "cuisine":"Barbeque",
    }
  },
  {
    "type": "Feature",
    "geometry": {
        "type": "Point",
        "coordinates":  [-89.3309382,43.1073114]
    },
    "properties": {
    "business_id":"DWZM3Qw0WJminDcXoBE_eA",
    "name":"Brothers Three Bar & Grill",
    "city":"Madison",
    "attributes.Price Range":"1",
    "review_count":"38",
    "stars":"4",
    "cuisine":"Burgers",
    }
  },
  {
    "type": "Feature",
    "geometry": {
        "type": "Point",
        "coordinates":  [-89.422717,43.017048]
    },
    "properties": {
    "business_id":"dylp6k9_Du-oojW5lVNwyA",
    "name":"Panera Bread",
    "city":"Madison",
    "attributes.Price Range":"1",
    "review_count":"28",
    "stars":"2.5",
    "cuisine":"Anonymous",
    }
  },
  {
    "type": "Feature",
    "geometry": {
        "type": "Point",
        "coordinates":  [-89.521326,43.14083]
    },
    "properties": {
    "business_id":"E1iGBnmtLu_DqtsSKnCQ4Q",
    "name":"Game Time Sports Bar and Grill",
    "city":"Madison",
    "attributes.Price Range":"1",
    "review_count":"6",
    "stars":"4",
    "cuisine":"American (Traditional)",
    }
  },
  {
    "type": "Feature",
    "geometry": {
        "type": "Point",
        "coordinates":  [-89.36401758,43.11131426]
    },
    "properties": {
    "business_id":"E6MOhbSbSu8Jqf9kNcNokg",
    "name":"Cafe La Bellitalia",
    "city":"Madison",
    "attributes.Price Range":"2",
    "review_count":"75",
    "stars":"4",
    "cuisine":"Pizza",
    }
  },
  {
    "type": "Feature",
    "geometry": {
        "type": "Point",
        "coordinates":  [-89.342612,43.2393613]
    },
    "properties": {
    "business_id":"E6r76XG8u6qJCJuyAMVFrg",
    "name":"Pizza Hut",
    "city":"Madison",
    "attributes.Price Range":"1",
    "review_count":"4",
    "stars":"4",
    "cuisine":"Italian",
    }
  },
  {
    "type": "Feature",
    "geometry": {
        "type": "Point",
        "coordinates":  [-89.3962559,43.0748716]
    },
    "properties": {
    "business_id":"E7suHPqErWxNpcKA9PCSHQ",
    "name":"Rising Sons Deli",
    "city":"Madison",
    "attributes.Price Range":"1",
    "review_count":"71",
    "stars":"3.5",
    "cuisine":"Thai",
    }
  },
  {
    "type": "Feature",
    "geometry": {
        "type": "Point",
        "coordinates":  [-89.52470354,43.066923]
    },
    "properties": {
    "business_id":"e8EODhFjwcYUzt_qFKJWzw",
    "name":"Milio's Sandwiches",
    "city":"Madison",
    "attributes.Price Range":"1",
    "review_count":"5",
    "stars":"5",
    "cuisine":"Anonymous",
    }
  },
  {
    "type": "Feature",
    "geometry": {
        "type": "Point",
        "coordinates":  [-89.3586789,43.0874279]
    },
    "properties": {
    "business_id":"EaGI835yZEyLbaEyoM85FQ",
    "name":"Banzo Shük",
    "city":"Madison",
    "attributes.Price Range":"2",
    "review_count":"16",
    "stars":"4.5",
    "cuisine":"Mediterranean",
    }
  },
  {
    "type": "Feature",
    "geometry": {
        "type": "Point",
        "coordinates":  [-89.3838053,43.0760472]
    },
    "properties": {
    "business_id":"EbhnT9RcTyyGNBp1s2NQZQ",
    "name":"Harvest",
    "city":"Madison",
    "attributes.Price Range":"3",
    "review_count":"182",
    "stars":"3.5",
    "cuisine":"American (New)",
    }
  },
  {
    "type": "Feature",
    "geometry": {
        "type": "Point",
        "coordinates":  [-89.348956,43.046505]
    },
    "properties": {
    "business_id":"ecJPRm8Nzx84IBmqI3Xy2w",
    "name":"McDonald's",
    "city":"Madison",
    "attributes.Price Range":"1",
    "review_count":"7",
    "stars":"2.5",
    "cuisine":"Burgers",
    }
  },
  {
    "type": "Feature",
    "geometry": {
        "type": "Point",
        "coordinates":  [-89.3963878,43.0748728]
    },
    "properties": {
    "business_id":"ed5VpqG6NlI2_ALQpZ0lLA",
    "name":"Mediterranean Cafe",
    "city":"Madison",
    "attributes.Price Range":"1",
    "review_count":"161",
    "stars":"4.5",
    "cuisine":"Greek",
    }
  },
  {
    "type": "Feature",
    "geometry": {
        "type": "Point",
        "coordinates":  [-89.227908,43.187902]
    },
    "properties": {
    "business_id":"EeLiNCQL8JGxHjBi8N3lRw",
    "name":"Erbert and Gerbert's",
    "city":"Madison",
    "attributes.Price Range":"1",
    "review_count":"15",
    "stars":"3.5",
    "cuisine":"Fast Food",
    }
  },
  {
    "type": "Feature",
    "geometry": {
        "type": "Point",
        "coordinates":  [-89.2708006,43.16626204]
    },
    "properties": {
    "business_id":"EfMxJr-rWlXc7UlGkI0Y5w",
    "name":"Monk's Bar & Grill",
    "city":"Madison",
    "attributes.Price Range":"2",
    "review_count":"44",
    "stars":"3.5",
    "cuisine":"American (Traditional)",
    }
  },
  {
    "type": "Feature",
    "geometry": {
        "type": "Point",
        "coordinates":  [-89.3685777,43.0805044]
    },
    "properties": {
    "business_id":"eG3Kxpv-JOLib9o5W9Aiyw",
    "name":"A Pig In a Fur Coat",
    "city":"Madison",
    "attributes.Price Range":"3",
    "review_count":"289",
    "stars":"4.5",
    "cuisine":"American (New)",
    }
  },
  {
    "type": "Feature",
    "geometry": {
        "type": "Point",
        "coordinates":  [-89.395561,43.0728191]
    },
    "properties": {
    "business_id":"EH7sT3dV-B365RETWCQhIA",
    "name":"Dotty Dumpling's Dowry",
    "city":"Madison",
    "attributes.Price Range":"2",
    "review_count":"357",
    "stars":"4",
    "cuisine":"Burgers",
    }
  },
  {
    "type": "Feature",
    "geometry": {
        "type": "Point",
        "coordinates":  [-89.1992292,43.1048724]
    },
    "properties": {
    "business_id":"eKT11QqlcEJUuq-OsaPMtw",
    "name":"School Grounds Cafe",
    "city":"Madison",
    "attributes.Price Range":"1",
    "review_count":"27",
    "stars":"4.5",
    "cuisine":"Cafes",
    }
  },
  {
    "type": "Feature",
    "geometry": {
        "type": "Point",
        "coordinates":  [-89.3907979,43.0754154]
    },
    "properties": {
    "business_id":"EnQewGyKYsME5gchmyvsPg",
    "name":"Paul's Pel'meni",
    "city":"Madison",
    "attributes.Price Range":"1",
    "review_count":"242",
    "stars":"4.5",
    "cuisine":"Anonymous",
    }
  },
  {
    "type": "Feature",
    "geometry": {
        "type": "Point",
        "coordinates":  [-89.4276427,43.0576158]
    },
    "properties": {
    "business_id":"EO_LRZc_g0KIR-uRC2ecnQ",
    "name":"Michael's Frozen Custard",
    "city":"Madison",
    "attributes.Price Range":"1",
    "review_count":"61",
    "stars":"3.5",
    "cuisine":"Burgers",
    }
  },
  {
    "type": "Feature",
    "geometry": {
        "type": "Point",
        "coordinates":  [-89.3758712,43.0814889]
    },
    "properties": {
    "business_id":"epMKlsA-OoZMNcXTMmWoMw",
    "name":"Sujeo",
    "city":"Madison",
    "attributes.Price Range":"2",
    "review_count":"140",
    "stars":"3.5",
    "cuisine":"Korean",
    }
  },
  {
    "type": "Feature",
    "geometry": {
        "type": "Point",
        "coordinates":  [-89.357178,43.098497]
    },
    "properties": {
    "business_id":"eR7pephNfbVvuBYgOvpK4g",
    "name":"Milio's Sandwiches",
    "city":"Madison",
    "attributes.Price Range":"1",
    "review_count":"4",
    "stars":"3",
    "cuisine":"Anonymous",
    }
  },
  {
    "type": "Feature",
    "geometry": {
        "type": "Point",
        "coordinates":  [-89.2777098,43.1891092]
    },
    "properties": {
    "business_id":"eRu1OoBfgGb8Js_BsCkgNA",
    "name":"Gus's Diner",
    "city":"Madison",
    "attributes.Price Range":"1",
    "review_count":"54",
    "stars":"3.5",
    "cuisine":"Anonymous",
    }
  },
  {
    "type": "Feature",
    "geometry": {
        "type": "Point",
        "coordinates":  [-89.40707268,43.03626891]
    },
    "properties": {
    "business_id":"eWjlM_MXCbVI2vrpviMxZw",
    "name":"Firehouse Subs",
    "city":"Madison",
    "attributes.Price Range":"1",
    "review_count":"17",
    "stars":"4",
    "cuisine":"Fast Food",
    }
  },
  {
    "type": "Feature",
    "geometry": {
        "type": "Point",
        "coordinates":  [-89.3944601,43.0440409]
    },
    "properties": {
    "business_id":"EwxURzkF_rhj6cVP7lxPhQ",
    "name":"El Pastor",
    "city":"Madison",
    "attributes.Price Range":"1",
    "review_count":"64",
    "stars":"3.5",
    "cuisine":"Mexican",
    }
  },
  {
    "type": "Feature",
    "geometry": {
        "type": "Point",
        "coordinates":  [-89.414181,43.067141]
    },
    "properties": {
    "business_id":"exfWB4hSVa1jWCVerV-0PQ",
    "name":"Athens Gyros",
    "city":"Madison",
    "attributes.Price Range":"0",
    "review_count":"6",
    "stars":"2.5",
    "cuisine":"Greek",
    }
  },
  {
    "type": "Feature",
    "geometry": {
        "type": "Point",
        "coordinates":  [-89.392028,43.075046]
    },
    "properties": {
    "business_id":"exLaqeER1uY9kVfwfFxvKA",
    "name":"Fair Trade Coffee",
    "city":"Madison",
    "attributes.Price Range":"1",
    "review_count":"55",
    "stars":"4",
    "cuisine":"Coffee & Tea",
    }
  },
  {
    "type": "Feature",
    "geometry": {
        "type": "Point",
        "coordinates":  [-89.3684867,43.0806833]
    },
    "properties": {
    "business_id":"e-YQOv0Uid6uzCz23yCyXw",
    "name":"Bahn Thai Restaurant",
    "city":"Madison",
    "attributes.Price Range":"2",
    "review_count":"54",
    "stars":"3.5",
    "cuisine":"Thai",
    }
  },
  {
    "type": "Feature",
    "geometry": {
        "type": "Point",
        "coordinates":  [-89.3747347,43.2503105]
    },
    "properties": {
    "business_id":"EZEVomdOu6OR4i2opTVOnQ",
    "name":"All Stop Deforest",
    "city":"Madison",
    "attributes.Price Range":"2",
    "review_count":"4",
    "stars":"1.5",
    "cuisine":"Pizza",
    }
  },
  {
    "type": "Feature",
    "geometry": {
        "type": "Point",
        "coordinates":  [-89.382215,43.073216]
    },
    "properties": {
    "business_id":"ezv2z7IlkKlvZdBPo1Msmw",
    "name":"Melted",
    "city":"Madison",
    "attributes.Price Range":"1",
    "review_count":"13",
    "stars":"4",
    "cuisine":"Anonymous",
    }
  },
  {
    "type": "Feature",
    "geometry": {
        "type": "Point",
        "coordinates":  [-89.3926196,43.0740407]
    },
    "properties": {
    "business_id":"EZwI5OaiqJq2w2_z6qP0rQ",
    "name":"Domino's Pizza",
    "city":"Madison",
    "attributes.Price Range":"2",
    "review_count":"12",
    "stars":"3",
    "cuisine":"Pizza",
    }
  },
  {
    "type": "Feature",
    "geometry": {
        "type": "Point",
        "coordinates":  [-89.4150386,43.0360296]
    },
    "properties": {
    "business_id":"f0gIqoBYj7GKOh6Icl8vAg",
    "name":"Culver's",
    "city":"Madison",
    "attributes.Price Range":"1",
    "review_count":"38",
    "stars":"4",
    "cuisine":"Fast Food",
    }
  },
  {
    "type": "Feature",
    "geometry": {
        "type": "Point",
        "coordinates":  [-89.3990084,43.0732747]
    },
    "properties": {
    "business_id":"f3i15z8B4H44Yli_UHrEYw",
    "name":"Milio's Sandwiches",
    "city":"Madison",
    "attributes.Price Range":"1",
    "review_count":"5",
    "stars":"4",
    "cuisine":"Anonymous",
    }
  },
  {
    "type": "Feature",
    "geometry": {
        "type": "Point",
        "coordinates":  [-89.4982112,43.0146933]
    },
    "properties": {
    "business_id":"F3Lzg82TAexZhKO_RPQaWw",
    "name":"Papa John's Pizza",
    "city":"Madison",
    "attributes.Price Range":"1",
    "review_count":"6",
    "stars":"2",
    "cuisine":"Pizza",
    }
  },
  {
    "type": "Feature",
    "geometry": {
        "type": "Point",
        "coordinates":  [-89.39086082,43.07477465]
    },
    "properties": {
    "business_id":"fBBMlJIud_LXrTV-zfkM0g",
    "name":"Pizza Di Roma",
    "city":"Madison",
    "attributes.Price Range":"1",
    "review_count":"77",
    "stars":"3.5",
    "cuisine":"Italian",
    }
  },
  {
    "type": "Feature",
    "geometry": {
        "type": "Point",
        "coordinates":  [-89.3953568,43.0678248]
    },
    "properties": {
    "business_id":"FbMM7eqnhQuZ6yQ2D4qXcw",
    "name":"Panera Bread",
    "city":"Madison",
    "attributes.Price Range":"1",
    "review_count":"9",
    "stars":"2",
    "cuisine":"Anonymous",
    }
  },
  {
    "type": "Feature",
    "geometry": {
        "type": "Point",
        "coordinates":  [-89.512235,43.061151]
    },
    "properties": {
    "business_id":"fc7QD3p7hOyewBFNOvTdOg",
    "name":"Pizza Hut",
    "city":"Madison",
    "attributes.Price Range":"1",
    "review_count":"15",
    "stars":"2.5",
    "cuisine":"Italian",
    }
  },
  {
    "type": "Feature",
    "geometry": {
        "type": "Point",
        "coordinates":  [-89.393063,43.07546]
    },
    "properties": {
    "business_id":"fDWvQT7sHx2PG6S41-V0ow",
    "name":"The Side Door Grill and Tap",
    "city":"Madison",
    "attributes.Price Range":"2",
    "review_count":"71",
    "stars":"4",
    "cuisine":"American (Traditional)",
    }
  },
  {
    "type": "Feature",
    "geometry": {
        "type": "Point",
        "coordinates":  [-89.38434,43.07243]
    },
    "properties": {
    "business_id":"fEX1IcPNrhJAdwk4DgyVVw",
    "name":"Tornado Steak House",
    "city":"Madison",
    "attributes.Price Range":"3",
    "review_count":"348",
    "stars":"4",
    "cuisine":"Steakhouses",
    }
  },
  {
    "type": "Feature",
    "geometry": {
        "type": "Point",
        "coordinates":  [-89.36915,43.25049]
    },
    "properties": {
    "business_id":"fF3WhLaEyvnpwZqrCOVqaQ",
    "name":"Taco Bell",
    "city":"Madison",
    "attributes.Price Range":"1",
    "review_count":"3",
    "stars":"3.5",
    "cuisine":"Fast Food",
    }
  },
  {
    "type": "Feature",
    "geometry": {
        "type": "Point",
        "coordinates":  [-89.3838875,43.0791526]
    },
    "properties": {
    "business_id":"FFox_Hm1gZGvlRxlQsxaLw",
    "name":"Pinkus McBride Market",
    "city":"Madison",
    "attributes.Price Range":"1",
    "review_count":"30",
    "stars":"4",
    "cuisine":"Anonymous",
    }
  },
  {
    "type": "Feature",
    "geometry": {
        "type": "Point",
        "coordinates":  [-89.48471,43.1042369]
    },
    "properties": {
    "business_id":"fGhu7d7oW09qDgVI5CZV7g",
    "name":"Captain Bill's",
    "city":"Madison",
    "attributes.Price Range":"2",
    "review_count":"70",
    "stars":"3",
    "cuisine":"Seafood",
    }
  },
  {
    "type": "Feature",
    "geometry": {
        "type": "Point",
        "coordinates":  [-89.3836392,43.0763038]
    },
    "properties": {
    "business_id":"FHqwLwpLjUjeLP-IdG_o_w",
    "name":"The Old Fashioned",
    "city":"Madison",
    "attributes.Price Range":"2",
    "review_count":"1184",
    "stars":"4",
    "cuisine":"American (Traditional)",
    }
  },
  {
    "type": "Feature",
    "geometry": {
        "type": "Point",
        "coordinates":  [-89.4069668,43.1488048]
    },