{
   "type": "FeatureCollection",
   "features": [
  {
    "type": "Feature",
    "geometry": {
        "type": "Point",
        "coordinates":  [-112.1410799,33.4952465]
    },
    "properties": {
    "business_id":"__CQhr0M-OpKdu0DXgGcaQ",
    "name":"Sylvia's La Canasta",
    "city":"Phoenix",
    "attributes.Price Range":"1",
    "review_count":"7",
    "stars":"2.5",
    "cuisine":"Mexican"
    }
  },
  {
    "type": "Feature",
    "geometry": {
        "type": "Point",
        "coordinates":  [-112.261029,33.551799]
    },
    "properties": {
    "business_id":"_1GI_asXVGhOJMNF51SdlQ",
    "name":"Taco Bell",
    "city":"Phoenix",
    "attributes.Price Range":"1",
    "review_count":"6",
    "stars":"2.5",
    "cuisine":"Fast Food"
    }
  },
  {
    "type": "Feature",
    "geometry": {
        "type": "Point",
        "coordinates":  [-112.3427564,33.44949699]
    },
    "properties": {
    "business_id":"_1kpFsEZH1VxPcTtEMtd1Q",
    "name":"Pizza Hut",
    "city":"Phoenix",
    "attributes.Price Range":"1",
    "review_count":"6",
    "stars":"1.5",
    "cuisine":"Pizza"
    }
  },
  {
    "type": "Feature",
    "geometry": {
        "type": "Point",
        "coordinates":  [-111.862674,33.32013]
    },
    "properties": {
    "business_id":"_20WCD89imWx15jlxv7kGg",
    "name":"Seksun Sushi",
    "city":"Phoenix",
    "attributes.Price Range":"2",
    "review_count":"134",
    "stars":"3.5",
    "cuisine":"Sushi Bars"
    }
  },
  {
    "type": "Feature",
    "geometry": {
        "type": "Point",
        "coordinates":  [-112.099065,33.5368504]
    },
    "properties": {
    "business_id":"_2DT03K8fWh82Y9tBVYMKQ",
    "name":"Subway",
    "city":"Phoenix",
    "attributes.Price Range":"1",
    "review_count":"8",
    "stars":"3.5",
    "cuisine":"Fast Food"
    }
  },
  {
    "type": "Feature",
    "geometry": {
        "type": "Point",
        "coordinates":  [-111.981639,33.4795444]
    },
    "properties": {
    "business_id":"_3Hpnxe1sJ6GOLpSRkgWyQ",
    "name":"Hungry Howie's Pizza",
    "city":"Phoenix",
    "attributes.Price Range":"1",
    "review_count":"25",
    "stars":"3",
    "cuisine":"Pizza"
    }
  },
  {
    "type": "Feature",
    "geometry": {
        "type": "Point",
        "coordinates":  [-111.6835678,33.45279777]
    },
    "properties": {
    "business_id":"_5FOD8UZxyJVWnnoAXq-GQ",
    "name":"Wendy's",
    "city":"Phoenix",
    "attributes.Price Range":"0",
    "review_count":"11",
    "stars":"1.5",
    "cuisine":"Burgers"
    }
  },
  {
    "type": "Feature",
    "geometry": {
        "type": "Point",
        "coordinates":  [-112.0310353,33.4953887]
    },
    "properties": {
    "business_id":"_5qkBSljHlRo5B9GQLDp3w",
    "name":"Subway",
    "city":"Phoenix",
    "attributes.Price Range":"0",
    "review_count":"6",
    "stars":"3.5",
    "cuisine":"Fast Food"
    }
  },
  {
    "type": "Feature",
    "geometry": {
        "type": "Point",
        "coordinates":  [-111.3784132,33.0388643]
    },
    "properties": {
    "business_id":"_5wB2ahFLsGA5L43XSAdSg",
    "name":"McDonald's",
    "city":"Phoenix",
    "attributes.Price Range":"1",
    "review_count":"5",
    "stars":"2",
    "cuisine":"Burgers"
    }
  },
  {
    "type": "Feature",
    "geometry": {
        "type": "Point",
        "coordinates":  [-112.0147884,33.03707955]
    },
    "properties": {
    "business_id":"_6rAAUCDoeJKiLNwHOaS1g",
    "name":"McDonald's",
    "city":"Phoenix",
    "attributes.Price Range":"0",
    "review_count":"7",
    "stars":"2.5",
    "cuisine":"Burgers"
    }
  },
  {
    "type": "Feature",
    "geometry": {
        "type": "Point",
        "coordinates":  [-112.4066665,33.6383013]
    },
    "properties": {
    "business_id":"_6rzEUOYbo7lgtkSKkKS9g",
    "name":"Culver's",
    "city":"Phoenix",
    "attributes.Price Range":"1",
    "review_count":"79",
    "stars":"3.5",
    "cuisine":"Burgers"
    }
  },
  {
    "type": "Feature",
    "geometry": {
        "type": "Point",
        "coordinates":  [-112.2603607,33.53853307]
    },
    "properties": {
    "business_id":"_7EJtWjOjZsBUNRvzw-_Xg",
    "name":"Johnny Rockets",
    "city":"Phoenix",
    "attributes.Price Range":"2",
    "review_count":"86",
    "stars":"2",
    "cuisine":"Burgers"
    }
  },
  {
    "type": "Feature",
    "geometry": {
        "type": "Point",
        "coordinates":  [-111.9862587,33.4736745]
    },
    "properties": {
    "business_id":"_8Y-XNHmQ76xmxUQIrn0sA",
    "name":"Blimpie",
    "city":"Phoenix",
    "attributes.Price Range":"1",
    "review_count":"15",
    "stars":"3.5",
    "cuisine":"Anonymous"
    }
  },
  {
    "type": "Feature",
    "geometry": {
        "type": "Point",
        "coordinates":  [-111.8578485,33.3847421]
    },
    "properties": {
    "business_id":"_9h-jH3YOkAU9-2A-dy6YQ",
    "name":"Old Chicago",
    "city":"Phoenix",
    "attributes.Price Range":"2",
    "review_count":"124",
    "stars":"3.5",
    "cuisine":"Anonymous"
    }
  },
  {
    "type": "Feature",
    "geometry": {
        "type": "Point",
        "coordinates":  [-112.3418499,33.59370132]
    },
    "properties": {
    "business_id":"_9Kk6zyna1T5CZoaBy_YCg",
    "name":"Federico's Mexican Food",
    "city":"Phoenix",
    "attributes.Price Range":"1",
    "review_count":"12",
    "stars":"2.5",
    "cuisine":"Mexican"
    }
  },
  {
    "type": "Feature",
    "geometry": {
        "type": "Point",
        "coordinates":  [-111.6344769,33.2497757]
    },
    "properties": {
    "business_id":"_9wiSQbsRe0fiVeHQkxygQ",
    "name":"Filibertos Mexican Food",
    "city":"Phoenix",
    "attributes.Price Range":"1",
    "review_count":"27",
    "stars":"3.5",
    "cuisine":"Mexican"
    }
  },
  {
    "type": "Feature",
    "geometry": {
        "type": "Point",
        "coordinates":  [-111.6848381,33.4132788]
    },
    "properties": {
    "business_id":"_9yrJLQpFa4JWvJ74xuHpw",
    "name":"Yen Ching",
    "city":"Phoenix",
    "attributes.Price Range":"1",
    "review_count":"32",
    "stars":"3.5",
    "cuisine":"Chinese"
    }
  },
  {
    "type": "Feature",
    "geometry": {
        "type": "Point",
        "coordinates":  [-112.7117618,32.9485206]
    },
    "properties": {
    "business_id":"_A4zWsLoLbjozEJYHLDx0Q",
    "name":"Little Italy Pizza & Restaurant",
    "city":"Phoenix",
    "attributes.Price Range":"2",
    "review_count":"69",
    "stars":"4",
    "cuisine":"Pizza"
    }
  },
  {
    "type": "Feature",
    "geometry": {
        "type": "Point",
        "coordinates":  [-111.92655,33.506543]
    },
    "properties": {
    "business_id":"_AvHni-xdRHmZ3XfYHwGkg",
    "name":"Posh Improvisational Cuisine",
    "city":"Phoenix",
    "attributes.Price Range":"4",
    "review_count":"334",
    "stars":"4",
    "cuisine":"American (New)"
    }
  },
  {
    "type": "Feature",
    "geometry": {
        "type": "Point",
        "coordinates":  [-111.8605725,33.3892092]
    },
    "properties": {
    "business_id":"_B_ksb_rYxfnHE0kbuezSQ",
    "name":"Charley's Grilled Subs",
    "city":"Phoenix",
    "attributes.Price Range":"1",
    "review_count":"3",
    "stars":"3.5",
    "cuisine":"Anonymous"
    }
  },
  {
    "type": "Feature",
    "geometry": {
        "type": "Point",
        "coordinates":  [-111.9512974,33.3772769]
    },
    "properties": {
    "business_id":"_B70VqLL-VLj3BUbBMLmFA",
    "name":"Subway",
    "city":"Phoenix",
    "attributes.Price Range":"0",
    "review_count":"4",
    "stars":"2.5",
    "cuisine":"Fast Food"
    }
  },
  {
    "type": "Feature",
    "geometry": {
        "type": "Point",
        "coordinates":  [-112.0685999,33.6401859]
    },
    "properties": {
    "business_id":"_BU867oRCLZnDIRmg7S6Wg",
    "name":"Chili's Grill & Bar",
    "city":"Phoenix",
    "attributes.Price Range":"2",
    "review_count":"77",
    "stars":"3",
    "cuisine":"Tex-Mex"
    }
  },
  {
    "type": "Feature",
    "geometry": {
        "type": "Point",
        "coordinates":  [-111.8411351,33.3118395]
    },
    "properties": {
    "business_id":"_CG5zJAoNN6gszjhSyUcww",
    "name":"Chodang",
    "city":"Phoenix",
    "attributes.Price Range":"2",
    "review_count":"264",
    "stars":"4",
    "cuisine":"Korean"
    }
  },
  {
    "type": "Feature",
    "geometry": {
        "type": "Point",
        "coordinates":  [-112.0834144,33.50896025]
    },
    "properties": {
    "business_id":"_CIodPGuvPP2khYkDk1jKw",
    "name":"Taqueria Los Yaquis",
    "city":"Phoenix",
    "attributes.Price Range":"1",
    "review_count":"159",
    "stars":"4.5",
    "cuisine":"Fast Food"
    }
  },
  {
    "type": "Feature",
    "geometry": {
        "type": "Point",
        "coordinates":  [-112.1526954,33.6546046]
    },
    "properties": {
    "business_id":"_CzopXSIYIp7_oeYNYVwWQ",
    "name":"Papa Sam's Chicago Style Pizzeria",
    "city":"Phoenix",
    "attributes.Price Range":"1",
    "review_count":"48",
    "stars":"3.5",
    "cuisine":"Italian"
    }
  },
  {
    "type": "Feature",
    "geometry": {
        "type": "Point",
        "coordinates":  [-111.841256,33.3664957]
    },
    "properties": {
    "business_id":"_D3KUba-5fHTbucTBAnigw",
    "name":"Wendy's",
    "city":"Phoenix",
    "attributes.Price Range":"1",
    "review_count":"14",
    "stars":"2.5",
    "cuisine":"Burgers"
    }
  },
  {
    "type": "Feature",
    "geometry": {
        "type": "Point",
        "coordinates":  [-112.2701358,33.5514914]
    },
    "properties": {
    "business_id":"_DjAApQ5qhhHP5H_gzX57A",
    "name":"Ocarnivores",
    "city":"Phoenix",
    "attributes.Price Range":"0",
    "review_count":"4",
    "stars":"1",
    "cuisine":"Mexican"
    }
  },
  {
    "type": "Feature",
    "geometry": {
        "type": "Point",
        "coordinates":  [-111.9079693,33.4952631]
    },
    "properties": {
    "business_id":"_dVPzYGXKNg2rIsc40VtyA",
    "name":"Jack-In-the Box",
    "city":"Phoenix",
    "attributes.Price Range":"1",
    "review_count":"14",
    "stars":"3",
    "cuisine":"Fast Food"
    }
  },
  {
    "type": "Feature",
    "geometry": {
        "type": "Point",
        "coordinates":  [-111.9086242,33.4671841]
    },
    "properties": {
    "business_id":"_DZfwU9dE9Q5I1-1jiM1vQ",
    "name":"Little Chicago Pizza",
    "city":"Phoenix",
    "attributes.Price Range":"2",
    "review_count":"99",
    "stars":"4",
    "cuisine":"Pizza"
    }
  },
  {
    "type": "Feature",
    "geometry": {
        "type": "Point",
        "coordinates":  [-112.1,33.6547]
    },
    "properties": {
    "business_id":"_eCrBSIXbGEW62ynS2_0lA",
    "name":"KFC",
    "city":"Phoenix",
    "attributes.Price Range":"1",
    "review_count":"22",
    "stars":"2",
    "cuisine":"Fast Food"
    }
  },
  {
    "type": "Feature",
    "geometry": {
        "type": "Point",
        "coordinates":  [-111.977,33.641684]
    },
    "properties": {
    "business_id":"_EdSQOkATuCtZ5y5A2m0rw",
    "name":"Arby's",
    "city":"Phoenix",
    "attributes.Price Range":"1",
    "review_count":"7",
    "stars":"2.5",
    "cuisine":"American (New)"
    }
  },
  {
    "type": "Feature",
    "geometry": {
        "type": "Point",
        "coordinates":  [-111.7542776,33.3940553]
    },
    "properties": {
    "business_id":"_EUbTaB4OUWoIcC6wc8_8g",
    "name":"Papa Murphy's",
    "city":"Phoenix",
    "attributes.Price Range":"1",
    "review_count":"13",
    "stars":"4",
    "cuisine":"Pizza"
    }
  },
  {
    "type": "Feature",
    "geometry": {
        "type": "Point",
        "coordinates":  [-111.7190667,33.4241074]
    },
    "properties": {
    "business_id":"_Ex3OUT0CBJxmn7M_ihzjg",
    "name":"Mafia Mike's Pizza",
    "city":"Phoenix",
    "attributes.Price Range":"0",
    "review_count":"4",
    "stars":"2",
    "cuisine":"Pizza"
    }
  },
  {
    "type": "Feature",
    "geometry": {
        "type": "Point",
        "coordinates":  [-112.0742088,33.4480348]
    },
    "properties": {
    "business_id":"_eymim7Di9WjVOxT4OSnjg",
    "name":"Pizza Studio",
    "city":"Phoenix",
    "attributes.Price Range":"1",
    "review_count":"119",
    "stars":"4",
    "cuisine":"Pizza"
    }
  },
  {
    "type": "Feature",
    "geometry": {
        "type": "Point",
        "coordinates":  [-111.9329179,33.8301769]
    },
    "properties": {
    "business_id":"_F2DNPjsqgkAd50zuX8dYQ",
    "name":"Harold's Corral",
    "city":"Phoenix",
    "attributes.Price Range":"2",
    "review_count":"246",
    "stars":"3.5",
    "cuisine":"American (Traditional)"
    }
  },
  {
    "type": "Feature",
    "geometry": {
        "type": "Point",
        "coordinates":  [-111.62524,33.24702]
    },
    "properties": {
    "business_id":"_fEbyHiAsCMAwd7FzNljWg",
    "name":"Taco Bell",
    "city":"Phoenix",
    "attributes.Price Range":"1",
    "review_count":"15",
    "stars":"3.5",
    "cuisine":"Fast Food"
    }
  },
  {
    "type": "Feature",
    "geometry": {
        "type": "Point",
        "coordinates":  [-111.9052801,33.5442187]
    },
    "properties": {
    "business_id":"_fMcFF-O4tUpVC6C23uyUQ",
    "name":"McDonald's",
    "city":"Phoenix",
    "attributes.Price Range":"0",
    "review_count":"4",
    "stars":"4",
    "cuisine":"Burgers"
    }
  },
  {
    "type": "Feature",
    "geometry": {
        "type": "Point",
        "coordinates":  [-112.074269,33.506199]
    },
    "properties": {
    "business_id":"_FXql6eVhbM923RdCi94SA",
    "name":"Hula's Modern Tiki",
    "city":"Phoenix",
    "attributes.Price Range":"2",
    "review_count":"887",
    "stars":"4",
    "cuisine":"Seafood"
    }
  },
  {
    "type": "Feature",
    "geometry": {
        "type": "Point",
        "coordinates":  [-112.38023,33.49234]
    },
    "properties": {
    "business_id":"_GnpdDmPqtrXkUHZ8YtvwA",
    "name":"Ada's Fish Fry",
    "city":"Phoenix",
    "attributes.Price Range":"2",
    "review_count":"139",
    "stars":"4.5",
    "cuisine":"Seafood"
    }
  },
  {
    "type": "Feature",
    "geometry": {
        "type": "Point",
        "coordinates":  [-111.96354,33.36363]
    },
    "properties": {
    "business_id":"_GWZRML1R9iHNSSo4i2MPA",
    "name":"Loreto's Mexican Food",
    "city":"Phoenix",
    "attributes.Price Range":"1",
    "review_count":"14",
    "stars":"4",
    "cuisine":"Mexican"
    }
  },
  {
    "type": "Feature",
    "geometry": {
        "type": "Point",
        "coordinates":  [-111.987753,33.466688]
    },
    "properties": {
    "business_id":"_gXpjRIjb5fv5f5IVGXvsw",
    "name":"Del Taco",
    "city":"Phoenix",
    "attributes.Price Range":"1",
    "review_count":"27",
    "stars":"3.5",
    "cuisine":"Fast Food"
    }
  },
  {
    "type": "Feature",
    "geometry": {
        "type": "Point",
        "coordinates":  [-111.9943392,33.43419008]
    },
    "properties": {
    "business_id":"_HGheM2jzKEZFqkT4kyViQ",
    "name":"Cartel Coffee Lab",
    "city":"Phoenix",
    "attributes.Price Range":"1",
    "review_count":"244",
    "stars":"4",
    "cuisine":"Coffee & Tea"
    }
  },
  {
    "type": "Feature",
    "geometry": {
        "type": "Point",
        "coordinates":  [-111.9252986,33.4787352]
    },
    "properties": {
    "business_id":"_HTE4pOKeJC7kcxiCF9vTA",
    "name":"Noodles Ranch",
    "city":"Phoenix",
    "attributes.Price Range":"2",
    "review_count":"345",
    "stars":"4",
    "cuisine":"Vietnamese"
    }
  },
  {
    "type": "Feature",
    "geometry": {
        "type": "Point",
        "coordinates":  [-112.2003171,33.71082317]
    },
    "properties": {
    "business_id":"_hTnLGWujfiZhIaCwWH8Ng",
    "name":"Bamboo Cafe",
    "city":"Phoenix",
    "attributes.Price Range":"2",
    "review_count":"69",
    "stars":"3.5",
    "cuisine":"Chinese"
    }
  },
  {
    "type": "Feature",
    "geometry": {
        "type": "Point",
        "coordinates":  [-111.880444,33.594737]
    },
    "properties": {
    "business_id":"_INaOLXnLK4cvX32CowuKw",
    "name":"Basil & Garlic Bistro",
    "city":"Phoenix",
    "attributes.Price Range":"2",
    "review_count":"174",
    "stars":"4.5",
    "cuisine":"Italian"
    }
  },
  {
    "type": "Feature",
    "geometry": {
        "type": "Point",
        "coordinates":  [-112.291439,33.4947098]
    },
    "properties": {
    "business_id":"_io-CVnCgHyt0vpTCrP13A",
    "name":"Brother's Pizza",
    "city":"Phoenix",
    "attributes.Price Range":"1",
    "review_count":"63",
    "stars":"4",
    "cuisine":"Italian"
    }
  },
  {
    "type": "Feature",
    "geometry": {
        "type": "Point",
        "coordinates":  [-111.6689463,33.307161]
    },
    "properties": {
    "business_id":"_jbeTDw6XSuvLaR1V_z8jw",
    "name":"Copper Plate An American Grill",
    "city":"Phoenix",
    "attributes.Price Range":"2",
    "review_count":"20",
    "stars":"3",
    "cuisine":"American (New)"
    }
  },
  {
    "type": "Feature",
    "geometry": {
        "type": "Point",
        "coordinates":  [-111.95152,33.37804]
    },
    "properties": {
    "business_id":"_JOTuEUnD1pU4IDIhiti5A",
    "name":"Taco Bell",
    "city":"Phoenix",
    "attributes.Price Range":"1",
    "review_count":"7",
    "stars":"3",
    "cuisine":"Fast Food"
    }
  },
  {
    "type": "Feature",
    "geometry": {
        "type": "Point",
        "coordinates":  [-112.3020958,33.6036135]
    },
    "properties": {
    "business_id":"_k2-7p9iwZOvtz59119WvA",
    "name":"Brenda's Kitchen",
    "city":"Phoenix",
    "attributes.Price Range":"1",
    "review_count":"47",
    "stars":"4.5",
    "cuisine":"Breakfast & Brunch"
    }
  },
  {
    "type": "Feature",
    "geometry": {
        "type": "Point",
        "coordinates":  [-112.3547911,33.64088662]
    },
    "properties": {
    "business_id":"_K5cfCM7-zQZ1hXdbsc2fQ",
    "name":"Tom Yum Authentic Thai",
    "city":"Phoenix",
    "attributes.Price Range":"2",
    "review_count":"167",
    "stars":"4",
    "cuisine":"Thai"
    }
  },
  {
    "type": "Feature",
    "geometry": {
        "type": "Point",
        "coordinates":  [-111.6183142,33.3933414]
    },
    "properties": {
    "business_id":"_k-f7k30E6Y8bd9kGKAuvA",
    "name":"Burger King",
    "city":"Phoenix",
    "attributes.Price Range":"1",
    "review_count":"7",
    "stars":"2",
    "cuisine":"Burgers"
    }
  },
  {
    "type": "Feature",
    "geometry": {
        "type": "Point",
        "coordinates":  [-111.8782339,33.3751825]
    },
    "properties": {
    "business_id":"_KGe3v1OzRnUmKhb3VkDgg",
    "name":"Dobson's Restaurant",
    "city":"Phoenix",
    "attributes.Price Range":"2",
    "review_count":"15",
    "stars":"4",
    "cuisine":"American (Traditional)"
    }
  },
  {
    "type": "Feature",
    "geometry": {
        "type": "Point",
        "coordinates":  [-111.6906428,32.8801451]
    },
    "properties": {
    "business_id":"_kXCU1R5-PLXRFW66la5rA",
    "name":"Dairy Queen",
    "city":"Phoenix",
    "attributes.Price Range":"2",
    "review_count":"4",
    "stars":"3",
    "cuisine":"Fast Food"
    }
  },
  {
    "type": "Feature",
    "geometry": {
        "type": "Point",
        "coordinates":  [-111.923733,33.699087]
    },
    "properties": {
    "business_id":"_L9E4eZWX0vdePNjU1xtuQ",
    "name":"Toyama",
    "city":"Phoenix",
    "attributes.Price Range":"2",
    "review_count":"91",
    "stars":"4",
    "cuisine":"Sushi Bars"
    }
  },
  {
    "type": "Feature",
    "geometry": {
        "type": "Point",
        "coordinates":  [-111.9245981,33.4987395]
    },
    "properties": {
    "business_id":"_Ld11xPo9puP3jBCNVkw2w",
    "name":"Social Tap",
    "city":"Phoenix",
    "attributes.Price Range":"2",
    "review_count":"59",
    "stars":"4.5",
    "cuisine":"American (New)"
    }
  },
  {
    "type": "Feature",
    "geometry": {
        "type": "Point",
        "coordinates":  [-111.8407834,33.24842159]
    },
    "properties": {
    "business_id":"_leflhF7uTuhDeGqXY6Kuw",
    "name":"Five Guys",
    "city":"Phoenix",
    "attributes.Price Range":"2",
    "review_count":"32",
    "stars":"3.5",
    "cuisine":"Burgers"
    }
  },
  {
    "type": "Feature",
    "geometry": {
        "type": "Point",
        "coordinates":  [-111.7423886,33.47053045]
    },
    "properties": {
    "business_id":"_lqPP1XZcI32DtI6pzWywA",
    "name":"Bistro a la Mode",
    "city":"Phoenix",
    "attributes.Price Range":"2",
    "review_count":"28",
    "stars":"4.5",
    "cuisine":"Cafes"
    }
  },
  {
    "type": "Feature",
    "geometry": {
        "type": "Point",
        "coordinates":  [-112.072962,33.386429]
    },
    "properties": {
    "business_id":"_LROw6bEGWdOxM6qMlHiUA",
    "name":"El Entronke Mexican Food",
    "city":"Phoenix",
    "attributes.Price Range":"2",
    "review_count":"11",
    "stars":"3.5",
    "cuisine":"Mexican"
    }
  },
  {
    "type": "Feature",
    "geometry": {
        "type": "Point",
        "coordinates":  [-111.840264,33.451867]
    },
    "properties": {
    "business_id":"_LuFh4iAKoN5YrR3VEkMPw",
    "name":"Carl's Jr.",
    "city":"Phoenix",
    "attributes.Price Range":"1",
    "review_count":"10",
    "stars":"1.5",
    "cuisine":"Fast Food"
    }
  },
  {
    "type": "Feature",
    "geometry": {
        "type": "Point",
        "coordinates":  [-111.7888755,33.4231465]
    },
    "properties": {
    "business_id":"_mt0EQgGCG-qrLy51RnQag",
    "name":"Garcia's Mexican Restaurant",
    "city":"Phoenix",
    "attributes.Price Range":"2",
    "review_count":"88",
    "stars":"3",
    "cuisine":"Mexican"
    }
  },
  {
    "type": "Feature",
    "geometry": {
        "type": "Point",
        "coordinates":  [-112.4781679,33.4662709]
    },
    "properties": {
    "business_id":"_NdSC-4rLBUGLVR2aas8zQ",
    "name":"Waddells Longhorn Corral",
    "city":"Phoenix",
    "attributes.Price Range":"2",
    "review_count":"39",
    "stars":"2.5",
    "cuisine":"Breakfast & Brunch"
    }
  },
  {
    "type": "Feature",
    "geometry": {
        "type": "Point",
        "coordinates":  [-111.9402874,33.42390199]
    },
    "properties": {
    "business_id":"_Ne4sL68IW6lEXYvrnkt-w",
    "name":"The Handlebar Tempe",
    "city":"Phoenix",
    "attributes.Price Range":"2",
    "review_count":"242",
    "stars":"3.5",
    "cuisine":"American (Traditional)"
    }
  },
  {
    "type": "Feature",
    "geometry": {
        "type": "Point",
        "coordinates":  [-112.0472805,33.0570277]
    },
    "properties": {
    "business_id":"_NImxt4kON4hdFDVXC_ydQ",
    "name":"Spoons Chi-Town Cafe",
    "city":"Phoenix",
    "attributes.Price Range":"2",
    "review_count":"6",
    "stars":"4",
    "cuisine":"Seafood"
    }
  },
  {
    "type": "Feature",
    "geometry": {
        "type": "Point",
        "coordinates":  [-112.0733997,33.39147]
    },
    "properties": {
    "business_id":"_Nx8hwTmjR_x62Byjav0Ew",
    "name":"La Olmeca Restaurant",
    "city":"Phoenix",
    "attributes.Price Range":"1",
    "review_count":"10",
    "stars":"2.5",
    "cuisine":"Mexican"
    }
  },
  {
    "type": "Feature",
    "geometry": {
        "type": "Point",
        "coordinates":  [-112.0737396,33.4091458]
    },
    "properties": {
    "business_id":"_nypuc5Ke462rFWKoZ_bDw",
    "name":"El Nuevo Taquito",
    "city":"Phoenix",
    "attributes.Price Range":"1",
    "review_count":"10",
    "stars":"4.5",
    "cuisine":"Mexican"
    }
  },
  {
    "type": "Feature",
    "geometry": {
        "type": "Point",
        "coordinates":  [-112.2635504,33.5360672]
    },
    "properties": {
    "business_id":"_oBxfuBd2qDEWaYsdvP_dg",
    "name":"Gordon Biersch",
    "city":"Phoenix",
    "attributes.Price Range":"2",
    "review_count":"168",
    "stars":"3.5",
    "cuisine":"American (New)"
    }
  },
  {
    "type": "Feature",
    "geometry": {
        "type": "Point",
        "coordinates":  [-112.0113581,33.4949347]
    },
    "properties": {
    "business_id":"_ODHYjCmrb3W9hIGJI1uaA",
    "name":"Loving Hut",
    "city":"Phoenix",
    "attributes.Price Range":"1",
    "review_count":"186",
    "stars":"4",
    "cuisine":"Vegetarian"
    }
  },
  {
    "type": "Feature",
    "geometry": {
        "type": "Point",
        "coordinates":  [-112.0821418,33.4298791]
    },
    "properties": {
    "business_id":"_oylByc6iTONI5lokMfYHQ",
    "name":"Armando's Mexican Food",
    "city":"Phoenix",
    "attributes.Price Range":"1",
    "review_count":"7",
    "stars":"3.5",
    "cuisine":"Mexican"
    }
  },
  {
    "type": "Feature",
    "geometry": {
        "type": "Point",
        "coordinates":  [-112.0746303,33.4474844]
    },
    "properties": {
    "business_id":"_OYlq2UoKPQO_ElqhC3a8w",
    "name":"Lucky Strike",
    "city":"Phoenix",
    "attributes.Price Range":"2",
    "review_count":"187",
    "stars":"3.5",
    "cuisine":"American (New)"
    }
  },
  {
    "type": "Feature",
    "geometry": {
        "type": "Point",
        "coordinates":  [-111.936102,33.3782141]
    },
    "properties": {
    "business_id":"_PFMtwWXDmdCmgfGWq2b9A",
    "name":"OPA Life Greek Cafe",
    "city":"Phoenix",
    "attributes.Price Range":"2",
    "review_count":"105",
    "stars":"4",
    "cuisine":"Greek"
    }
  },
  {
    "type": "Feature",
    "geometry": {
        "type": "Point",
        "coordinates":  [-112.219404,33.481249]
    },
    "properties": {
    "business_id":"_PSo13KRX_X7FQR5mtUCug",
    "name":"Hibachi Grill & Supreme Buffet",
    "city":"Phoenix",
    "attributes.Price Range":"1",
    "review_count":"41",
    "stars":"3.5",
    "cuisine":"Chinese"
    }
  },
  {
    "type": "Feature",
    "geometry": {
        "type": "Point",
        "coordinates":  [-112.1004874,33.5529149]
    },
    "properties": {
    "business_id":"_pw-OnDpCe9XM0rDVvTUMg",
    "name":"McDonald's",
    "city":"Phoenix",
    "attributes.Price Range":"1",
    "review_count":"16",
    "stars":"3",
    "cuisine":"Burgers"
    }
  },
  {
    "type": "Feature",
    "geometry": {
        "type": "Point",
        "coordinates":  [-111.9244098,33.5649368]
    },
    "properties": {
    "business_id":"_ql42UadWUh9SgU09_c2mQ",
    "name":"Pei Wei",
    "city":"Phoenix",
    "attributes.Price Range":"1",
    "review_count":"84",
    "stars":"3.5",
    "cuisine":"Asian Fusion"
    }
  },
  {
    "type": "Feature",
    "geometry": {
        "type": "Point",
        "coordinates":  [-112.0386623,33.4547925]
    },
    "properties": {
    "business_id":"_qTzOkbin2giDOrFsaxm8A",
    "name":"Al-Hana",
    "city":"Phoenix",
    "attributes.Price Range":"1",
    "review_count":"74",
    "stars":"4",
    "cuisine":"Mediterranean"
    }
  },
  {
    "type": "Feature",
    "geometry": {
        "type": "Point",
        "coordinates":  [-111.9718284,33.4657562]
    },
    "properties": {
    "business_id":"_RBUU1y4yJrK0SPAd8z0-w",
    "name":"Indian Delhi Palace",
    "city":"Phoenix",
    "attributes.Price Range":"2",
    "review_count":"210",
    "stars":"3.5",
    "cuisine":"Indian"
    }
  },
  {
    "type": "Feature",
    "geometry": {
        "type": "Point",
        "coordinates":  [-111.7177745,33.4373395]
    },
    "properties": {
    "business_id":"_rGLtqmX-IAHTM3JUgXmWg",
    "name":"Salad and Go",
    "city":"Phoenix",
    "attributes.Price Range":"1",
    "review_count":"53",
    "stars":"4.5",
    "cuisine":"Fast Food"
    }
  },
  {
    "type": "Feature",
    "geometry": {
        "type": "Point",
        "coordinates":  [-111.8416345,33.3224444]
    },
    "properties": {
    "business_id":"_SbBztPWznTFKG8l-fMJEQ",
    "name":"Golden City Chinese Restruant",
    "city":"Phoenix",
    "attributes.Price Range":"1",
    "review_count":"4",
    "stars":"4",
    "cuisine":"Chinese"
    }
  },
  {
    "type": "Feature",
    "geometry": {
        "type": "Point",
        "coordinates":  [-111.9437634,33.6253645]
    },
    "properties": {
    "business_id":"_sppJb0durssEnD1fs94mw",
    "name":"McDonald's",
    "city":"Phoenix",
    "attributes.Price Range":"1",
    "review_count":"11",
    "stars":"2.5",
    "cuisine":"Burgers"
    }
  },
  {
    "type": "Feature",
    "geometry": {
        "type": "Point",
        "coordinates":  [-112.3455916,33.4637937]
    },
    "properties": {
    "business_id":"_SWb6l-M_ohosfSmet3e1w",
    "name":"Buffalo Wild Wings",
    "city":"Phoenix",
    "attributes.Price Range":"2",
    "review_count":"145",
    "stars":"2.5",
    "cuisine":"American (Traditional)"
    }
  },
  {
    "type": "Feature",
    "geometry": {
        "type": "Point",
        "coordinates":  [-111.8862448,33.6513692]
    },
    "properties": {
    "business_id":"_TgZG9bwEsJNcFmrMYIl5A",
    "name":"Rosati's Pizza",
    "city":"Phoenix",
    "attributes.Price Range":"2",
    "review_count":"45",
    "stars":"3.5",
    "cuisine":"Pizza"
    }
  },
  {
    "type": "Feature",
    "geometry": {
        "type": "Point",
        "coordinates":  [-111.9321082,33.4933306]
    },
    "properties": {
    "business_id":"_tkAI5Q5XQSfgbqJzDKSDQ",
    "name":"Old Town Tortilla Factory",
    "city":"Phoenix",
    "attributes.Price Range":"2",
    "review_count":"324",
    "stars":"3",
    "cuisine":"Mexican"
    }
  },
  {
    "type": "Feature",
    "geometry": {
        "type": "Point",
        "coordinates":  [-111.7218954,33.2937917]
    },
    "properties": {
    "business_id":"_tULIKll0EQsIAnPnxaoLg",
    "name":"Hungry Howie's Pizza",
    "city":"Phoenix",
    "attributes.Price Range":"1",
    "review_count":"41",
    "stars":"2.5",
    "cuisine":"Pizza"
    }
  },
  {
    "type": "Feature",
    "geometry": {
        "type": "Point",
        "coordinates":  [-111.8665619,33.65664673]
    },
    "properties": {
    "business_id":"_tWPlLKRenyHPvkxqZ2UQQ",
    "name":"Ciao Grazie",
    "city":"Phoenix",
    "attributes.Price Range":"2",
    "review_count":"84",
    "stars":"4",
    "cuisine":"Italian"
    }
  },
  {
    "type": "Feature",
    "geometry": {
        "type": "Point",
        "coordinates":  [-111.9443831,33.6397015]
    },
    "properties": {
    "business_id":"_TWT58PWunYIyPgpz1fuog",
    "name":"Arena Sports Grill",
    "city":"Phoenix",
    "attributes.Price Range":"1",
    "review_count":"77",
    "stars":"3.5",
    "cuisine":"American (Traditional)"
    }
  },
  {
    "type": "Feature",
    "geometry": {
        "type": "Point",
        "coordinates":  [-112.0733099,33.45832124]
    },
    "properties": {
    "business_id":"_TZn9b5qkvC7RWeWKf01bw",
    "name":"Radish",
    "city":"Phoenix",
    "attributes.Price Range":"2",
    "review_count":"53",
    "stars":"4.5",
    "cuisine":"Anonymous"
    }
  },
  {
    "type": "Feature",
    "geometry": {
        "type": "Point",
        "coordinates":  [-112.3559976,33.63723914]
    },
    "properties": {
    "business_id":"_ufhmY-588fNlV5ers3UQQ",
    "name":"Samurai Sam's",
    "city":"Phoenix",
    "attributes.Price Range":"1",
    "review_count":"19",
    "stars":"3.5",
    "cuisine":"Japanese"
    }
  },
  {
    "type": "Feature",
    "geometry": {
        "type": "Point",
        "coordinates":  [-111.8874099,33.6297775]
    },
    "properties": {
    "business_id":"_UrbZpgCq638dWrS0Vly2A",
    "name":"Smashburger",
    "city":"Phoenix",
    "attributes.Price Range":"1",
    "review_count":"106",
    "stars":"3.5",
    "cuisine":"Burgers"
    }
  },
  {
    "type": "Feature",
    "geometry": {
        "type": "Point",
        "coordinates":  [-111.9053413,33.6699604]
    },
    "properties": {
    "business_id":"_uUlWKhPmjFUUxOSS-EP_w",
    "name":"Jack In The Box",
    "city":"Phoenix",
    "attributes.Price Range":"1",
    "review_count":"12",
    "stars":"2",
    "cuisine":"Fast Food"
    }
  },
  {
    "type": "Feature",
    "geometry": {
        "type": "Point",
        "coordinates":  [-111.9746066,33.678615]
    },
    "properties": {
    "business_id":"_viHcOY9w_CitP4oHpZYdg",
    "name":"Nori Sushi",
    "city":"Phoenix",
    "attributes.Price Range":"2",
    "review_count":"236",
    "stars":"4",
    "cuisine":"Sushi Bars"
    }
  },
  {
    "type": "Feature",
    "geometry": {
        "type": "Point",
        "coordinates":  [-111.5632679,33.16254862]
    },
    "properties": {
    "business_id":"_-VPCIdtP19HQI7CcsfVTA",
    "name":"Greek Islands Grill",
    "city":"Phoenix",
    "attributes.Price Range":"1",
    "review_count":"119",
    "stars":"4.5",
    "cuisine":"Greek"
    }
  },
  {
    "type": "Feature",
    "geometry": {
        "type": "Point",
        "coordinates":  [-111.9231353,33.8256769]
    },
    "properties": {
    "business_id":"_vXXcs_ej_u3sS-YY1CKMg",
    "name":"Carefree Bistro",
    "city":"Phoenix",
    "attributes.Price Range":"2",
    "review_count":"45",
    "stars":"4",
    "cuisine":"Mediterranean"
    }
  },
  {
    "type": "Feature",
    "geometry": {
        "type": "Point",
        "coordinates":  [-111.9422,33.3928427]
    },
    "properties": {
    "business_id":"_w2wIsBh-1M1ZCed2KjLlw",
    "name":"Red Devil Italian Restaurant & Pizzeria",
    "city":"Phoenix",
    "attributes.Price Range":"2",
    "review_count":"75",
    "stars":"3.5",
    "cuisine":"Pizza"
    }
  },
  {
    "type": "Feature",
    "geometry": {
        "type": "Point",
        "coordinates":  [-112.152221,33.551259]
    },
    "properties": {
    "business_id":"_WHc6Iwi40s2gcvkotEoOQ",
    "name":"Submarinos Pizzeria",
    "city":"Phoenix",
    "attributes.Price Range":"1",
    "review_count":"40",
    "stars":"4",
    "cuisine":"Italian"
    }
  },
  {
    "type": "Feature",
    "geometry": {
        "type": "Point",
        "coordinates":  [-111.928574,33.498914]
    },
    "properties": {
    "business_id":"_WP0nIqmrSFLcY8nV8KUSA",
    "name":"Tapas Papa Frita",
    "city":"Phoenix",
    "attributes.Price Range":"2",
    "review_count":"357",
    "stars":"3.5",
    "cuisine":"Anonymous"
    }
  },
  {
    "type": "Feature",
    "geometry": {
        "type": "Point",
        "coordinates":  [-112.2193582,33.6387108]
    },
    "properties": {
    "business_id":"_wrA7CMbMqcWEDCNghi5cg",
    "name":"Mimis Cafe",
    "city":"Phoenix",
    "attributes.Price Range":"2",
    "review_count":"110",
    "stars":"2.5",
    "cuisine":"Breakfast & Brunch"
    }
  },
  {
    "type": "Feature",
    "geometry": {
        "type": "Point",
        "coordinates":  [-111.971069,33.466366]
    },
    "properties": {
    "business_id":"_XSFS-QQpuP1sQVqNKrxGw",
    "name":"Gypsy's Roadhouse",
    "city":"Phoenix",
    "attributes.Price Range":"1",
    "review_count":"12",
    "stars":"4.5",
    "cuisine":"Burgers"
    }
  },
  {
    "type": "Feature",
    "geometry": {
        "type": "Point",
        "coordinates":  [-111.9261671,33.62535214]
    },
    "properties": {
    "business_id":"_YswYrpv6YdO3R3CP8R8oQ",
    "name":"Morton's The Steakhouse",
    "city":"Phoenix",
    "attributes.Price Range":"4",
    "review_count":"120",
    "stars":"3",
    "cuisine":"American (Traditional)"
    }
  },
  {
    "type": "Feature",
    "geometry": {
        "type": "Point",
        "coordinates":  [-112.236825,33.611403]
    },
    "properties": {
    "business_id":"_yW2zLQAmqhj2m7rBbpFPw",
    "name":"Culver's",
    "city":"Phoenix",
    "attributes.Price Range":"1",
    "review_count":"46",
    "stars":"3.5",
    "cuisine":"Burgers"
    }
  },
  {
    "type": "Feature",
    "geometry": {
        "type": "Point",
        "coordinates":  [-112.0728651,33.3843342]
    },
    "properties": {
    "business_id":"_zksiS8qbYcn9GMi6kqhoA",
    "name":"Little Caesar's Pizza",
    "city":"Phoenix",
    "attributes.Price Range":"1",
    "review_count":"3",
    "stars":"1.5",
    "cuisine":"Pizza"
    }
  },
  {
    "type": "Feature",
    "geometry": {
        "type": "Point",
        "coordinates":  [-111.9181982,33.5015872]
    },
    "properties": {
    "business_id":"_ZyFytyHTuYJoZgwj7yitQ",
    "name":"Clancy's Pub",
    "city":"Phoenix",
    "attributes.Price Range":"2",
    "review_count":"72",
    "stars":"3.5",
    "cuisine":"American (Traditional)"
    }
  },
  {
    "type": "Feature",
    "geometry": {
        "type": "Point",
        "coordinates":  [-112.0734554,33.4500711]
    },
    "properties": {
    "business_id":"0_tdxG9EhtSc9CCHWeJAdg",
    "name":"Nook Kitchen",
    "city":"Phoenix",
    "attributes.Price Range":"2",
    "review_count":"37",
    "stars":"4.5",
    "cuisine":"Italian"
    }
  },
  {
    "type": "Feature",
    "geometry": {
        "type": "Point",
        "coordinates":  [-112.3756268,33.6556512]
    },
    "properties": {
    "business_id":"00F1t_WeyPx4eQV3kPqv5w",
    "name":"Ray's Pizza",
    "city":"Phoenix",
    "attributes.Price Range":"1",
    "review_count":"34",
    "stars":"4",
    "cuisine":"Pizza"
    }
  },
  {
    "type": "Feature",
    "geometry": {
        "type": "Point",
        "coordinates":  [-111.9505612,33.4216106]
    },
    "properties": {
    "business_id":"00xD3o61AjrGOpEHiGPEwg",
    "name":"Taco Shack",
    "city":"Phoenix",
    "attributes.Price Range":"1",
    "review_count":"58",
    "stars":"3.5",
    "cuisine":"Vegetarian"
    }
  },
  {
    "type": "Feature",
    "geometry": {
        "type": "Point",
        "coordinates":  [-111.839574,33.4161829]
    },
    "properties": {
    "business_id":"01euuGhBwvcDhl9KcPTang",
    "name":"El Salsita",
    "city":"Phoenix",
    "attributes.Price Range":"1",
    "review_count":"11",
    "stars":"2.5",
    "cuisine":"Breakfast & Brunch"
    }
  },
  {
    "type": "Feature",
    "geometry": {
        "type": "Point",
        "coordinates":  [-112.1662105,33.61123837]
    },
    "properties": {
    "business_id":"01hHIKQBwJL-GcjpGuBrLA",
    "name":"Bonitas",
    "city":"Phoenix",
    "attributes.Price Range":"1",
    "review_count":"49",
    "stars":"4",
    "cuisine":"Mexican"
    }
  },
  {
    "type": "Feature",
    "geometry": {
        "type": "Point",
        "coordinates":  [-112.3718919,33.3703984]
    },
    "properties": {
    "business_id":"02rrDia_FTc8jN7LGqzIbQ",
    "name":"Corral West Arena",
    "city":"Phoenix",
    "attributes.Price Range":"2",
    "review_count":"14",
    "stars":"5",
    "cuisine":"Barbeque"
    }
  },
  {
    "type": "Feature",
    "geometry": {
        "type": "Point",
        "coordinates":  [-111.8586047,33.3658811]
    },
    "properties": {
    "business_id":"0-407ZN5bpARlNh9FOHh6Q",
    "name":"Dinghao Shanghai Bistro",
    "city":"Phoenix",
    "attributes.Price Range":"1",
    "review_count":"48",
    "stars":"3",
    "cuisine":"Chinese"
    }
  },
  {
    "type": "Feature",
    "geometry": {
        "type": "Point",
        "coordinates":  [-112.0473925,33.4660319]
    },
    "properties": {
    "business_id":"04HakCR6gEeRYNAoKxkppQ",
    "name":"Hacienda Restaurant",
    "city":"Phoenix",
    "attributes.Price Range":"1",
    "review_count":"4",
    "stars":"3",
    "cuisine":"Mexican"
    }
  },
  {
    "type": "Feature",
    "geometry": {
        "type": "Point",
        "coordinates":  [-111.8681319,33.43388734]
    },
    "properties": {
    "business_id":"04Jrd2zSzwHwmBqdKQDmIw",
    "name":"Yogis Grill",
    "city":"Phoenix",
    "attributes.Price Range":"1",
    "review_count":"42",
    "stars":"3",
    "cuisine":"Japanese"
    }
  },
  {
    "type": "Feature",
    "geometry": {
        "type": "Point",
        "coordinates":  [-111.7904384,33.26060237]
    },
    "properties": {
    "business_id":"04MB_bGvE_XPx2cd-k4b1g",
    "name":"Alfonso's Mexican Food",
    "city":"Phoenix",
    "attributes.Price Range":"1",
    "review_count":"18",
    "stars":"4",
    "cuisine":"Mexican"
    }
  },
  {
    "type": "Feature",
    "geometry": {
        "type": "Point",
        "coordinates":  [-111.7582579,33.378983]
    },
    "properties": {
    "business_id":"06kfoeRs9Acj82Yl3i9p_w",
    "name":"Wildflower Bread Company",
    "city":"Phoenix",
    "attributes.Price Range":"2",
    "review_count":"125",
    "stars":"4.5",
    "cuisine":"American (Traditional)"
    }
  },
  {
    "type": "Feature",
    "geometry": {
        "type": "Point",
        "coordinates":  [-112.07285,33.3834256]
    },
    "properties": {
    "business_id":"06YP_JnJzns84fOyQ0HA0Q",
    "name":"Playas Del Novilleros",
    "city":"Phoenix",
    "attributes.Price Range":"3",
    "review_count":"10",
    "stars":"4.5",
    "cuisine":"Seafood"
    }
  },
  {
    "type": "Feature",
    "geometry": {
        "type": "Point",
        "coordinates":  [-111.9064536,33.4948598]
    },
    "properties": {
    "business_id":"08eBj_o6oTncJR0ylM8qSg",
    "name":"Rice Garden",
    "city":"Phoenix",
    "attributes.Price Range":"1",
    "review_count":"18",
    "stars":"3.5",
    "cuisine":"Fast Food"
    }
  },
  {
    "type": "Feature",
    "geometry": {
        "type": "Point",
        "coordinates":  [-111.6345116,33.2453338]
    },
    "properties": {
    "business_id":"08IFR_ruWR96K3Q6sakI_g",
    "name":"Sushi Creek",
    "city":"Phoenix",
    "attributes.Price Range":"2",
    "review_count":"187",
    "stars":"4",
    "cuisine":"Sushi Bars"
    }
  },
  {
    "type": "Feature",
    "geometry": {
        "type": "Point",
        "coordinates":  [-112.186891,33.6622393]
    },
    "properties": {
    "business_id":"09H5iBjLtJCVl76WLW_a9w",
    "name":"Toscana Osteria",
    "city":"Phoenix",
    "attributes.Price Range":"2",
    "review_count":"20",
    "stars":"4",
    "cuisine":"Pizza"
    }
  },
  {
    "type": "Feature",
    "geometry": {
        "type": "Point",
        "coordinates":  [-111.9492446,33.833786]
    },
    "properties": {
    "business_id":"0-A_cxbEmlkkq0362cvi3A",
    "name":"Hot Dog Daddy",
    "city":"Phoenix",
    "attributes.Price Range":"1",
    "review_count":"10",
    "stars":"4.5",
    "cuisine":"Hot Dogs"
    }
  },
  {
    "type": "Feature",
    "geometry": {
        "type": "Point",
        "coordinates":  [-111.9940331,33.47977171]
    },
    "properties": {
    "business_id":"0ANCSsUU-kJijIe335ITpw",
    "name":"Adela's Italian",
    "city":"Phoenix",
    "attributes.Price Range":"2",
    "review_count":"110",
    "stars":"4.5",
    "cuisine":"Italian"
    }
  },
  {
    "type": "Feature",
    "geometry": {
        "type": "Point",
        "coordinates":  [-112.0119874,33.5094709]
    },
    "properties": {
    "business_id":"0AZiq_OMKs3I9lTmwd5PSg",
    "name":"Tommy V's Osteria and Pizzeria",
    "city":"Phoenix",
    "attributes.Price Range":"2",
    "review_count":"56",
    "stars":"3.5",
    "cuisine":"Italian"
    }
  },
  {
    "type": "Feature",
    "geometry": {
        "type": "Point",
        "coordinates":  [-111.6342993,33.2486638]
    },
    "properties": {
    "business_id":"0B5Wc9BvcVTwe11-NpicTw",
    "name":"Subway",
    "city":"Phoenix",
    "attributes.Price Range":"2",
    "review_count":"5",
    "stars":"2.5",
    "cuisine":"Fast Food"
    }
  },
  {
    "type": "Feature",
    "geometry": {
        "type": "Point",
        "coordinates":  [-112.0297553,33.66352973]
    },
    "properties": {
    "business_id":"0bIAt8OIgdBh-cl5t0E3pg",
    "name":"Tacos & Tequilas",
    "city":"Phoenix",
    "attributes.Price Range":"1",
    "review_count":"43",
    "stars":"4",
    "cuisine":"Mexican"
    }
  },
  {
    "type": "Feature",
    "geometry": {
        "type": "Point",
        "coordinates":  [-112.0191651,33.6399519]
    },
    "properties": {
    "business_id":"0BpMvu5B9fY-KEbOuxLtFQ",
    "name":"Sushi Ave",
    "city":"Phoenix",
    "attributes.Price Range":"2",
    "review_count":"125",
    "stars":"3.5",
    "cuisine":"Sushi Bars"
    }
  },
  {
    "type": "Feature",
    "geometry": {
        "type": "Point",
        "coordinates":  [-112.2884145,33.564146]
    },
    "properties": {
    "business_id":"0bQiWdKxj2EmsGYRVC9qyA",
    "name":"T & J Asian Cuisine",
    "city":"Phoenix",
    "attributes.Price Range":"1",
    "review_count":"90",
    "stars":"4",
    "cuisine":"Asian Fusion"
    }
  },
  {
    "type": "Feature",
    "geometry": {
        "type": "Point",
        "coordinates":  [-111.9048315,33.5741684]
    },
    "properties": {
    "business_id":"0bQKW7e23wTJxgvs_p2HjQ",
    "name":"Shish Kabobs & Gyros",
    "city":"Phoenix",
    "attributes.Price Range":"1",
    "review_count":"79",
    "stars":"4",
    "cuisine":"Greek"
    }
  },
  {
    "type": "Feature",
    "geometry": {
        "type": "Point",
        "coordinates":  [-111.8881173,33.6745336]
    },
    "properties": {
    "business_id":"0bQxDsdQ50AKVb8yvsyPeQ",
    "name":"All American Modern Sports Grill",
    "city":"Phoenix",
    "attributes.Price Range":"2",
    "review_count":"58",
    "stars":"3.5",
    "cuisine":"American (Traditional)"
    }
  },
  {
    "type": "Feature",
    "geometry": {
        "type": "Point",
        "coordinates":  [-111.6705522,33.4907391]
    },
    "properties": {
    "business_id":"0BScRHEa2lVBCY4spkhmvQ",
    "name":"The Grille",
    "city":"Phoenix",
    "attributes.Price Range":"2",
    "review_count":"28",
    "stars":"3.5",
    "cuisine":"American (New)"
    }
  },
  {
    "type": "Feature",
    "geometry": {
        "type": "Point",
        "coordinates":  [-111.8070538,33.3815815]
    },
    "properties": {
    "business_id":"0CeEgarUoVP2Nq9s1Mn0Aw",
    "name":"Mad Dog Saloon",
    "city":"Phoenix",
    "attributes.Price Range":"2",
    "review_count":"118",
    "stars":"3",
    "cuisine":"American (New)"
    }
  },
  {
    "type": "Feature",
    "geometry": {
        "type": "Point",
        "coordinates":  [-112.3416086,33.45655521]
    },
    "properties": {
    "business_id":"0CG3ns3gwWV5nOnfzSfUIQ",
    "name":"Black Bear Diner",
    "city":"Phoenix",
    "attributes.Price Range":"2",
    "review_count":"297",
    "stars":"4",
    "cuisine":"Breakfast & Brunch"
    }
  },
  {
    "type": "Feature",
    "geometry": {
        "type": "Point",
        "coordinates":  [-112.2221158,33.4955326]
    },
    "properties": {
    "business_id":"0D5T1XBQBlWnsr57GBTU7A",
    "name":"P.A.K Crepes & Coffee",
    "city":"Phoenix",
    "attributes.Price Range":"1",
    "review_count":"10",
    "stars":"5",
    "cuisine":"Coffee & Tea"
    }
  },
  {
    "type": "Feature",
    "geometry": {
        "type": "Point",
        "coordinates":  [-112.1341823,33.5108725]
    },
    "properties": {
    "business_id":"0db71MbrvcJnyk71COCJBg",
    "name":"Great Wall Cuisine",
    "city":"Phoenix",
    "attributes.Price Range":"2",
    "review_count":"301",
    "stars":"3.5",
    "cuisine":"Cantonese"
    }
  },
  {
    "type": "Feature",
    "geometry": {
        "type": "Point",
        "coordinates":  [-112.0632154,33.4661987]
    },
    "properties": {
    "business_id":"0De3TQ_uSOXwgduKL0va3w",
    "name":"Sonic Drive-In",
    "city":"Phoenix",
    "attributes.Price Range":"1",
    "review_count":"15",
    "stars":"3.5",
    "cuisine":"Fast Food"
    }
  },
  {
    "type": "Feature",
    "geometry": {
        "type": "Point",
        "coordinates":  [-112.0910715,33.4943622]
    },
    "properties": {
    "business_id":"0dIChGWBs9ueUXl0hhkw2w",
    "name":"Crazy Jim's",
    "city":"Phoenix",
    "attributes.Price Range":"2",
    "review_count":"152",
    "stars":"4",
    "cuisine":"Greek"
    }
  },
  {
    "type": "Feature",
    "geometry": {
        "type": "Point",
        "coordinates":  [-111.9254224,33.42245164]
    },
    "properties": {
    "business_id":"0DmlApp_OFX1wuwvH7rvhg",
    "name":"Copper Blues",
    "city":"Phoenix",
    "attributes.Price Range":"2",
    "review_count":"28",
    "stars":"3.5",
    "cuisine":"American (New)"
    }
  },
  {
    "type": "Feature",
    "geometry": {
        "type": "Point",
        "coordinates":  [-112.065474,33.47014]
    },
    "properties": {
    "business_id":"0dORc6ckZw5HezR3BuSsqw",
    "name":"Green New American Vegetarian",
    "city":"Phoenix",
    "attributes.Price Range":"2",
    "review_count":"520",
    "stars":"4.5",
    "cuisine":"Vegetarian"
    }
  },
  {
    "type": "Feature",
    "geometry": {
        "type": "Point",
        "coordinates":  [-111.9257416,33.5065813]
    },
    "properties": {
    "business_id":"0DR0OOVju_ZoPNVzneEQbQ",
    "name":"Postino Highland",
    "city":"Phoenix",
    "attributes.Price Range":"2",
    "review_count":"42",
    "stars":"4",
    "cuisine":"Breakfast & Brunch"
    }
  },
  {
    "type": "Feature",
    "geometry": {
        "type": "Point",
        "coordinates":  [-112.2892068,33.56369012]
    },
    "properties": {
    "business_id":"0dU-oiiYkWGT_Jwo18_Z7g",
    "name":"Rosati's Pizza",
    "city":"Phoenix",
    "attributes.Price Range":"2",
    "review_count":"52",
    "stars":"2.5",
    "cuisine":"Italian"
    }
  },
  {
    "type": "Feature",
    "geometry": {
        "type": "Point",
        "coordinates":  [-112.0812903,33.6407079]
    },
    "properties": {
    "business_id":"0EBR4wDqtkbMC-wghpctEg",
    "name":"Samurai Sam's",
    "city":"Phoenix",
    "attributes.Price Range":"1",
    "review_count":"21",
    "stars":"3",
    "cuisine":"Japanese"
    }
  },
  {
    "type": "Feature",
    "geometry": {
        "type": "Point",
        "coordinates":  [-111.6340048,33.2418524]
    },
    "properties": {
    "business_id":"0EXVIF07vw-QTTy9V7-ebg",
    "name":"The Bistro Queen Creek",
    "city":"Phoenix",
    "attributes.Price Range":"2",
    "review_count":"104",
    "stars":"4",
    "cuisine":"Coffee & Tea"
    }
  },
  {
    "type": "Feature",
    "geometry": {
        "type": "Point",
        "coordinates":  [-112.169179,33.53721118]
    },
    "properties": {
    "business_id":"0F4YI5iE5CDzeQ4_ixIFDQ",
    "name":"Little Caesar's Pizza",
    "city":"Phoenix",
    "attributes.Price Range":"0",
    "review_count":"3",
    "stars":"3",
    "cuisine":"Pizza"
    }
  },
  {
    "type": "Feature",
    "geometry": {
        "type": "Point",
        "coordinates":  [-111.9293282,33.32217891]
    },
    "properties": {
    "business_id":"0g_KFvnPIkA8ywTXPPeRCg",
    "name":"Hong Kong Asian Diner",
    "city":"Phoenix",
    "attributes.Price Range":"1",
    "review_count":"85",
    "stars":"3.5",
    "cuisine":"Asian Fusion"
    }
  },
  {
    "type": "Feature",
    "geometry": {
        "type": "Point",
        "coordinates":  [-111.926946,33.4945614]
    },
    "properties": {
    "business_id":"0gQrhOYWdO0XVZEKtOrvaA",
    "name":"Red Devil Italian Restaurant & Pizzeria",
    "city":"Phoenix",
    "attributes.Price Range":"2",
    "review_count":"109",
    "stars":"3.5",
    "cuisine":"Pizza"
    }
  },
  {
    "type": "Feature",
    "geometry": {
        "type": "Point",
        "coordinates":  [-112.1109946,33.4809293]
    },
    "properties": {
    "business_id":"0hekndawD7zHxRwjQCS2Zw",
    "name":"Arby's",
    "city":"Phoenix",
    "attributes.Price Range":"1",
    "review_count":"3",
    "stars":"4",
    "cuisine":"American (New)"
    }
  },
  {
    "type": "Feature",
    "geometry": {
        "type": "Point",
        "coordinates":  [-111.981475,33.331156]
    },
    "properties": {
    "business_id":"-0HGqwlfw3I8nkJyMHxAsQ",
    "name":"McDonald's",
    "city":"Phoenix",
    "attributes.Price Range":"1",
    "review_count":"15",
    "stars":"2.5",
    "cuisine":"Burgers"
    }
  },
  {
    "type": "Feature",
    "geometry": {
        "type": "Point",
        "coordinates":  [-112.1336723,33.6232445]
    },
    "properties": {
    "business_id":"0hY0qoXHcI3czshcrZPpYg",
    "name":"Del Taco",
    "city":"Phoenix",
    "attributes.Price Range":"1",
    "review_count":"8",
    "stars":"2.5",
    "cuisine":"Mexican"
    }
  },
  {
    "type": "Feature",
    "geometry": {
        "type": "Point",
        "coordinates":  [-111.8934184,33.3796393]
    },
    "properties": {
    "business_id":"0hYTkJtgQGu-ysCZnmFZDQ",
    "name":"The Siamese Cat",
    "city":"Phoenix",
    "attributes.Price Range":"2",
    "review_count":"52",
    "stars":"4",
    "cuisine":"Thai"
    }
  },
  {
    "type": "Feature",
    "geometry": {
        "type": "Point",
        "coordinates":  [-111.682255,33.4510401]
    },
    "properties": {
    "business_id":"0hZLn2MG_mRPoyrt66JnLQ",
    "name":"Lucky Lou's American Grill",
    "city":"Phoenix",
    "attributes.Price Range":"2",
    "review_count":"67",
    "stars":"4",
    "cuisine":"American (Traditional)"
    }
  },
  {
    "type": "Feature",
    "geometry": {
        "type": "Point",
        "coordinates":  [-111.789656,33.365858]
    },
    "properties": {
    "business_id":"0idZ5QJ_divjmPyDzqktZA",
    "name":"Masa Sushi",
    "city":"Phoenix",
    "attributes.Price Range":"2",
    "review_count":"152",
    "stars":"4",
    "cuisine":"Sushi Bars"
    }
  },
  {
    "type": "Feature",
    "geometry": {
        "type": "Point",
        "coordinates":  [-111.9710667,33.67579787]
    },
    "properties": {
    "business_id":"0ieEqGInYunNBaBzg8j_WQ",
    "name":"Slices",
    "city":"Phoenix",
    "attributes.Price Range":"1",
    "review_count":"46",
    "stars":"3.5",
    "cuisine":"Pizza"
    }
  },
  {
    "type": "Feature",
    "geometry": {
        "type": "Point",
        "coordinates":  [-111.924676,33.4150471]
    },
    "properties": {
    "business_id":"0j2UisBk89SHqihr0IdlJw",
    "name":"Sal's Pizza",
    "city":"Phoenix",
    "attributes.Price Range":"1",
    "review_count":"36",
    "stars":"3",
    "cuisine":"Pizza"
    }
  },
  {
    "type": "Feature",
    "geometry": {
        "type": "Point",
        "coordinates":  [-111.8410319,33.3178465]
    },
    "properties": {
    "business_id":"0JFKxuixFnJen6MwOCi8Lg",
    "name":"Church's Chicken",
    "city":"Phoenix",
    "attributes.Price Range":"1",
    "review_count":"14",
    "stars":"2",
    "cuisine":"Fast Food"
    }
  },
  {
    "type": "Feature",
    "geometry": {
        "type": "Point",
        "coordinates":  [-112.113939,33.523995]
    },
    "properties": {
    "business_id":"0Jouvs4G3d6CcG3pYGZ20A",
    "name":"Lunch Box",
    "city":"Phoenix",
    "attributes.Price Range":"1",
    "review_count":"33",
    "stars":"2.5",
    "cuisine":"Breakfast & Brunch"
    }
  },
  {
    "type": "Feature",
    "geometry": {
        "type": "Point",
        "coordinates":  [-111.8769002,33.3795296]
    },
    "properties": {
    "business_id":"0jrqXBr8UJjlG23yJevGbg",
    "name":"China Express",
    "city":"Phoenix",
    "attributes.Price Range":"1",
    "review_count":"13",
    "stars":"4.5",
    "cuisine":"Chinese"
    }
  },
  {
    "type": "Feature",
    "geometry": {
        "type": "Point",
        "coordinates":  [-112.1859866,33.5386523]
    },
    "properties": {
    "business_id":"0JS32I8PvxfVIAqS77jcGA",
    "name":"Chipotle Mexican Grill",
    "city":"Phoenix",
    "attributes.Price Range":"0",
    "review_count":"5",
    "stars":"4",
    "cuisine":"Fast Food"
    }
  },
  {
    "type": "Feature",
    "geometry": {
        "type": "Point",
        "coordinates":  [-112.0471421,33.5113051]
    },
    "properties": {
    "business_id":"0K35eGvzVRZEirNo5v_WfA",
    "name":"Ajo Al's Mexican Cafe",
    "city":"Phoenix",
    "attributes.Price Range":"2",
    "review_count":"120",
    "stars":"3.5",
    "cuisine":"Mexican"
    }
  },
  {
    "type": "Feature",
    "geometry": {
        "type": "Point",
        "coordinates":  [-111.9199218,33.42242098]
    },
    "properties": {
    "business_id":"0K634ehk41ZRc4kj3NTAEQ",
    "name":"Chompie's Deli",
    "city":"Phoenix",
    "attributes.Price Range":"2",
    "review_count":"461",
    "stars":"3.5",
    "cuisine":"Breakfast & Brunch"
    }
  },
  {
    "type": "Feature",
    "geometry": {
        "type": "Point",
        "coordinates":  [-111.9791357,33.3057984]
    },
    "properties": {
    "business_id":"0kZ4aYmqf5fzTt9Yvz8Kvw",
    "name":"Waffle House",
    "city":"Phoenix",
    "attributes.Price Range":"1",
    "review_count":"64",
    "stars":"3.5",
    "cuisine":"Breakfast & Brunch"
    }
  },
  {
    "type": "Feature",
    "geometry": {
        "type": "Point",
        "coordinates":  [-112.0663223,33.3777609]
    },
    "properties": {
    "business_id":"0LBv0QQK9L6ArPkO4eXjJA",
    "name":"Hong Kong Kitchen 3",
    "city":"Phoenix",
    "attributes.Price Range":"1",
    "review_count":"47",
    "stars":"4.5",
    "cuisine":"Chinese"
    }
  },
  {
    "type": "Feature",
    "geometry": {
        "type": "Point",
        "coordinates":  [-111.6840393,33.384191]
    },
    "properties": {
    "business_id":"0le8kj4gIHe9aZ1NfS2_Ag",
    "name":"Burger King",
    "city":"Phoenix",
    "attributes.Price Range":"1",
    "review_count":"14",
    "stars":"2",
    "cuisine":"Anonymous"
    }
  },
  {
    "type": "Feature",
    "geometry": {
        "type": "Point",
        "coordinates":  [-112.041489,33.508736]
    },
    "properties": {
    "business_id":"0lEp4vISRmOXa8Xz2pWhbw",
    "name":"Cafe Zupas",
    "city":"Phoenix",
    "attributes.Price Range":"1",
    "review_count":"248",
    "stars":"4",
    "cuisine":"Anonymous"
    }
  },
  {
    "type": "Feature",
    "geometry": {
        "type": "Point",
        "coordinates":  [-111.683508,33.394607]
    },
    "properties": {
    "business_id":"0-lJQCSwnHmIczjcSw_N_g",
    "name":"Kokobelli Bagel Cafe",
    "city":"Phoenix",
    "attributes.Price Range":"1",
    "review_count":"110",
    "stars":"4",
    "cuisine":"Breakfast & Brunch"
    }
  },
  {
    "type": "Feature",
    "geometry": {
        "type": "Point",
        "coordinates":  [-112.1017111,33.4955824]
    },
    "properties": {
    "business_id":"0LLaVEXjtW0aW0FzU9uRoA",
    "name":"Yin's Chinese Resturant",
    "city":"Phoenix",
    "attributes.Price Range":"1",
    "review_count":"25",
    "stars":"4",
    "cuisine":"Chinese"
    }
  },
  {
    "type": "Feature",
    "geometry": {
        "type": "Point",
        "coordinates":  [-111.963499,33.351139]
    },
    "properties": {
    "business_id":"0m0KmAYGvC34MfwJIEgCEA",
    "name":"Fuddruckers",
    "city":"Phoenix",
    "attributes.Price Range":"2",
    "review_count":"74",
    "stars":"3.5",
    "cuisine":"Burgers"
    }
  },
  {
    "type": "Feature",
    "geometry": {
        "type": "Point",
        "coordinates":  [-112.1323768,33.6539661]
    },
    "properties": {
    "business_id":"0MQ3inDAuiq43TN9hw_Rbw",
    "name":"Sonic Drive-In",
    "city":"Phoenix",
    "attributes.Price Range":"1",
    "review_count":"10",
    "stars":"3.5",
    "cuisine":"American (Traditional)"
    }
  },
  {
    "type": "Feature",
    "geometry": {
        "type": "Point",
        "coordinates":  [-112.0734243,33.4473359]
    },
    "properties": {
    "business_id":"0nGjXTpUtpIJl10PL0eBGg",
    "name":"Breakfast Club",
    "city":"Phoenix",
    "attributes.Price Range":"2",
    "review_count":"305",
    "stars":"3.5",
    "cuisine":"Breakfast & Brunch"
    }
  },
  {
    "type": "Feature",
    "geometry": {
        "type": "Point",
        "coordinates":  [-111.9299424,33.3792519]
    },
    "properties": {
    "business_id":"0NhcabzEyeCIMsNCPOX-MQ",
    "name":"Jimmy John's",
    "city":"Phoenix",
    "attributes.Price Range":"1",
    "review_count":"47",
    "stars":"3.5",
    "cuisine":"Anonymous"
    }
  },
  {
    "type": "Feature",
    "geometry": {
        "type": "Point",
        "coordinates":  [-112.05858,33.8000531]
    },
    "properties": {
    "business_id":"0NlTmTzKYXbE6Hx2iGEb5A",
    "name":"El Encanto DOS",
    "city":"Phoenix",
    "attributes.Price Range":"2",
    "review_count":"145",
    "stars":"3",
    "cuisine":"Mexican"
    }
  },
  {
    "type": "Feature",
    "geometry": {
        "type": "Point",
        "coordinates":  [-111.6322395,33.4348086]
    },
    "properties": {
    "business_id":"0no1_3lj2ESQFgPaJAYZtg",
    "name":"Subway",
    "city":"Phoenix",
    "attributes.Price Range":"1",
    "review_count":"3",
    "stars":"2",
    "cuisine":"Fast Food"
    }
  },
  {
    "type": "Feature",
    "geometry": {
        "type": "Point",
        "coordinates":  [-112.1361274,33.5672322]
    },
    "properties": {
    "business_id":"0nT6cj3YBJIJSwHL4mKlJw",
    "name":"Pho Viet",
    "city":"Phoenix",
    "attributes.Price Range":"0",
    "review_count":"3",
    "stars":"2.5",
    "cuisine":"Vietnamese"
    }
  },
  {
    "type": "Feature",
    "geometry": {
        "type": "Point",
        "coordinates":  [-112.1131966,33.8578568]
    },
    "properties": {
    "business_id":"0OjN8M62r8cJhSF1mGfsdg",
    "name":"Sonic Drive-In",
    "city":"Phoenix",
    "attributes.Price Range":"1",
    "review_count":"12",
    "stars":"2.5",
    "cuisine":"American (Traditional)"
    }
  },
  {
    "type": "Feature",
    "geometry": {
        "type": "Point",
        "coordinates":  [-111.9680584,33.31850066]
    },
    "properties": {
    "business_id":"0ONypOKIhttBz9IJzBE8jg",
    "name":"Fleming's Prime Steakhouse & Wine Bar",
    "city":"Phoenix",
    "attributes.Price Range":"3",
    "review_count":"216",
    "stars":"3.5",
    "cuisine":"Steakhouses"
    }
  },
  {
    "type": "Feature",
    "geometry": {
        "type": "Point",
        "coordinates":  [-111.6355259,33.3781959]
    },
    "properties": {
    "business_id":"0pGLXuFpUNTgArmOgbBpwg",
    "name":"McDonald's",
    "city":"Phoenix",
    "attributes.Price Range":"1",
    "review_count":"10",
    "stars":"2",
    "cuisine":"Burgers"
    }
  },
  {
    "type": "Feature",
    "geometry": {
        "type": "Point",
        "coordinates":  [-112.2749132,33.7139576]
    },
    "properties": {
    "business_id":"0q98gY5I_5Ad_zLowCDkGA",
    "name":"Lakeside Bar & Grill",
    "city":"Phoenix",
    "attributes.Price Range":"2",
    "review_count":"117",
    "stars":"3.5",
    "cuisine":"Burgers"
    }
  },
  {
    "type": "Feature",
    "geometry": {
        "type": "Point",
        "coordinates":  [-112.1144192,33.4513914]
    },
    "properties": {
    "business_id":"-0QBrNvhrPQCaeo7mTo0zQ",
    "name":"La Salcita",
    "city":"Phoenix",
    "attributes.Price Range":"1",
    "review_count":"4",
    "stars":"3.5",
    "cuisine":"Anonymous"
    }
  },
  {
    "type": "Feature",
    "geometry": {
        "type": "Point",
        "coordinates":  [-111.8208673,33.3356969]
    },
    "properties": {
    "business_id":"0QHBb-nEi1ZX7ciSUweL0w",
    "name":"Sushi San",
    "city":"Phoenix",
    "attributes.Price Range":"2",
    "review_count":"125",
    "stars":"4",
    "cuisine":"Japanese"
    }
  },
  {
    "type": "Feature",
    "geometry": {
        "type": "Point",
        "coordinates":  [-112.0000395,33.4954047]
    },
    "properties": {
    "business_id":"0QTn4pMzKv1mnQifcP9YoQ",
    "name":"Autumn Court",
    "city":"Phoenix",
    "attributes.Price Range":"2",
    "review_count":"157",
    "stars":"3.5",
    "cuisine":"Sushi Bars"
    }
  },
  {
    "type": "Feature",
    "geometry": {
        "type": "Point",
        "coordinates":  [-112.2000542,33.6371533]
    },
    "properties": {
    "business_id":"0qUesn1TBPpPjW20h5Lqfg",
    "name":"Fresh Wasabi",
    "city":"Phoenix",
    "attributes.Price Range":"2",
    "review_count":"154",
    "stars":"4",
    "cuisine":"Sushi Bars"
    }
  },
  {
    "type": "Feature",
    "geometry": {
        "type": "Point",
        "coordinates":  [-111.757045,33.379618]
    },
    "properties": {
    "business_id":"0rbT0Nf-A56t4DnYIIvy-Q",
    "name":"Cafe Zupas",
    "city":"Phoenix",
    "attributes.Price Range":"1",
    "review_count":"163",
    "stars":"4",
    "cuisine":"Cafes"
    }
  },
  {
    "type": "Feature",
    "geometry": {
        "type": "Point",
        "coordinates":  [-112.1124809,33.7101008]
    },
    "properties": {
    "business_id":"0RqNRc6RiILzZxK9J8Kqug",
    "name":"Red Robin Gourmet Burgers",
    "city":"Phoenix",
    "attributes.Price Range":"2",
    "review_count":"128",
    "stars":"3.5",
    "cuisine":"Burgers"
    }
  },
  {
    "type": "Feature",
    "geometry": {
        "type": "Point",
        "coordinates":  [-112.130575,33.843578]
    },
    "properties": {
    "business_id":"0Rrih6W3LGrNGB_3cQaplg",
    "name":"Fry's",
    "city":"Phoenix",
    "attributes.Price Range":"1",
    "review_count":"25",
    "stars":"3.5",
    "cuisine":"Anonymous"
    }
  },
  {
    "type": "Feature",
    "geometry": {
        "type": "Point",
        "coordinates":  [-111.866945,33.43392]
    },
    "properties": {
    "business_id":"0-sdroUNeGuoDt4J-ij3_A",
    "name":"Logan's Roadhouse",
    "city":"Phoenix",
    "attributes.Price Range":"2",
    "review_count":"17",
    "stars":"2",
    "cuisine":"American (Traditional)"
    }
  },
  {
    "type": "Feature",
    "geometry": {
        "type": "Point",
        "coordinates":  [-112.2061812,33.58235549]
    },
    "properties": {
    "business_id":"0SI_lD1xTb6hUqpruo6ovw",
    "name":"Gallagher's Food & Fun",
    "city":"Phoenix",
    "attributes.Price Range":"2",
    "review_count":"44",
    "stars":"3",
    "cuisine":"American (Traditional)"
    }
  },
  {
    "type": "Feature",
    "geometry": {
        "type": "Point",
        "coordinates":  [-111.9402044,33.42402838]
    },
    "properties": {
    "business_id":"0sNQHGJCb6ckMW3P_J3oXA",
    "name":"Five Guys Burgers and Fries",
    "city":"Phoenix",
    "attributes.Price Range":"2",
    "review_count":"127",
    "stars":"3",
    "cuisine":"Burgers"
    }
  },
  {
    "type": "Feature",
    "geometry": {
        "type": "Point",
        "coordinates":  [-112.1348622,33.4510435]
    },
    "properties": {
    "business_id":"0spv_UWTK46V6e7-QcXw4w",
    "name":"McDonald's",
    "city":"Phoenix",
    "attributes.Price Range":"1",
    "review_count":"4",
    "stars":"2",
    "cuisine":"Burgers"
    }
  },
  {
    "type": "Feature",
    "geometry": {
        "type": "Point",
        "coordinates":  [-111.8697934,33.4335836]
    },
    "properties": {
    "business_id":"0SQmfh7ppX3HnYx9SxmReA",
    "name":"Panda Express",
    "city":"Phoenix",
    "attributes.Price Range":"1",
    "review_count":"23",
    "stars":"3",
    "cuisine":"Fast Food"
    }
  },
  {
    "type": "Feature",
    "geometry": {
        "type": "Point",
        "coordinates":  [-112.370739,33.6527744]
    },
    "properties": {
    "business_id":"0T0CX-ILJEOuEJnNi1Lu3A",
    "name":"Hungry Howie's Pizza",
    "city":"Phoenix",
    "attributes.Price Range":"2",
    "review_count":"8",
    "stars":"3.5",
    "cuisine":"Pizza"
    }
  },
  {
    "type": "Feature",
    "geometry": {
        "type": "Point",
        "coordinates":  [-111.7560085,33.3947016]
    },
    "properties": {
    "business_id":"0tqq8EyKp2X5GVB6W79rCg",
    "name":"Ginger Zing",
    "city":"Phoenix",
    "attributes.Price Range":"1",
    "review_count":"34",
    "stars":"4",
    "cuisine":"Asian Fusion"
    }
  },
  {
    "type": "Feature",
    "geometry": {
        "type": "Point",
        "coordinates":  [-111.9447584,33.4214488]
    },
    "properties": {
    "business_id":"0udEgNqy5rLR5pZ4kD19Og",
    "name":"Thai Basil",
    "city":"Phoenix",
    "attributes.Price Range":"2",
    "review_count":"317",
    "stars":"4",
    "cuisine":"Thai"
    }
  },
  {
    "type": "Feature",
    "geometry": {
        "type": "Point",
        "coordinates":  [-111.8602592,33.3503683]
    },
    "properties": {
    "business_id":"0UWfvm0ah-8DVSm3nkbsMg",
    "name":"El Metate Mexican Food",
    "city":"Phoenix",
    "attributes.Price Range":"1",
    "review_count":"10",
    "stars":"3.5",
    "cuisine":"Mexican"
    }
  },
  {
    "type": "Feature",
    "geometry": {
        "type": "Point",
        "coordinates":  [-112.0995026,33.4947917]
    },
    "properties": {
    "business_id":"0vb_YDCtZo0Yk9zHF7rzSA",
    "name":"Pizza Hut",
    "city":"Phoenix",
    "attributes.Price Range":"1",
    "review_count":"17",
    "stars":"1.5",
    "cuisine":"Italian"
    }
  },
  {
    "type": "Feature",
    "geometry": {
        "type": "Point",
        "coordinates":  [-112.083543,33.509984]
    },
    "properties": {
    "business_id":"0vFCASHpp2VBeTuVus4MOg",
    "name":"Kyoto Bowl",
    "city":"Phoenix",
    "attributes.Price Range":"1",
    "review_count":"27",
    "stars":"2",
    "cuisine":"Japanese"
    }
  },
  {
    "type": "Feature",
    "geometry": {
        "type": "Point",
        "coordinates":  [-111.9716122,33.4656605]
    },
    "properties": {
    "business_id":"0vjPlHp1eZPOyb-bcjp-9g",
    "name":"Castaways",
    "city":"Phoenix",
    "attributes.Price Range":"1",
    "review_count":"39",
    "stars":"4",
    "cuisine":"American (Traditional)"
    }
  },
  {
    "type": "Feature",
    "geometry": {
        "type": "Point",
        "coordinates":  [-111.6852728,33.4161104]
    },
    "properties": {
    "business_id":"0VV3LLrgDHrJ_n4suqKWLg",
    "name":"Arby's",
    "city":"Phoenix",
    "attributes.Price Range":"1",
    "review_count":"10",
    "stars":"4",
    "cuisine":"Fast Food"
    }
  },
  {
    "type": "Feature",
    "geometry": {
        "type": "Point",
        "coordinates":  [-111.6791041,33.3856312]
    },
    "properties": {
    "business_id":"0VyvlA1mZsDoYd3kkRjevA",
    "name":"Outback Steakhouse",
    "city":"Phoenix",
    "attributes.Price Range":"2",
    "review_count":"84",
    "stars":"3",
    "cuisine":"Steakhouses"
    }
  },
  {
    "type": "Feature",
    "geometry": {
        "type": "Point",
        "coordinates":  [-111.976156,33.347684]
    },
    "properties": {
    "business_id":"0vzZ_Bcb02rJljeMU9XkBw",
    "name":"Sakana Sushi & Grill",
    "city":"Phoenix",
    "attributes.Price Range":"2",
    "review_count":"336",
    "stars":"3.5",
    "cuisine":"Seafood"
    }
  },
  {
    "type": "Feature",
    "geometry": {
        "type": "Point",
        "coordinates":  [-112.1537963,33.5678807]
    },
    "properties": {
    "business_id":"0WBsN95ItG6IyiB1X2lMrA",
    "name":"K Sushi Bar & Grill",
    "city":"Phoenix",
    "attributes.Price Range":"2",
    "review_count":"115",
    "stars":"3.5",
    "cuisine":"Korean"
    }
  },
  {
    "type": "Feature",
    "geometry": {
        "type": "Point",
        "coordinates":  [-111.924627,33.5266038]
    },
    "properties": {
    "business_id":"0Wgkqmf1uJB9AmiQK75qHw",
    "name":"Slanted Rice Vietnamese Bistro",
    "city":"Phoenix",
    "attributes.Price Range":"2",
    "review_count":"140",
    "stars":"4",
    "cuisine":"Vietnamese"
    }
  },
  {
    "type": "Feature",
    "geometry": {
        "type": "Point",
        "coordinates":  [-112.343663,33.463185]
    },
    "properties": {
    "business_id":"0WI0ydH2HtFxFswYXhE--w",
    "name":"Nakama Sushi Restaurant & Lounge",
    "city":"Phoenix",
    "attributes.Price Range":"2",
    "review_count":"174",
    "stars":"3.5",
    "cuisine":"Sushi Bars"
    }
  },
  {
    "type": "Feature",
    "geometry": {
        "type": "Point",
        "coordinates":  [-111.7435751,33.29659]
    },
    "properties": {
    "business_id":"0wkFwbx-6gWusPuDkqgR7A",
    "name":"Smashburger",
    "city":"Phoenix",
    "attributes.Price Range":"1",
    "review_count":"65",
    "stars":"3.5",
    "cuisine":"Burgers"
    }
  },
  {
    "type": "Feature",
    "geometry": {
        "type": "Point",
        "coordinates":  [-111.6918182,33.32995454]
    },
    "properties": {
    "business_id":"0X4vhkD4OeRE5tbFz91x2A",
    "name":"Pizza Hut",
    "city":"Phoenix",
    "attributes.Price Range":"2",
    "review_count":"12",
    "stars":"2",
    "cuisine":"Chicken Wings"
    }
  },
  {
    "type": "Feature",
    "geometry": {
        "type": "Point",
        "coordinates":  [-111.5997773,33.1891666]
    },
    "properties": {
    "business_id":"0XaoiuLevLVGJRAVq755qQ",
    "name":"Domino's Pizza",
    "city":"Phoenix",
    "attributes.Price Range":"2",
    "review_count":"6",
    "stars":"4",
    "cuisine":"Pizza"
    }
  },
  {
    "type": "Feature",
    "geometry": {
        "type": "Point",
        "coordinates":  [-111.986576,33.4751508]
    },
    "properties": {
    "business_id":"0xWF7PpTNl-awqg2YGxxFQ",
    "name":"IHOP",
    "city":"Phoenix",
    "attributes.Price Range":"1",
    "review_count":"58",
    "stars":"3",
    "cuisine":"Breakfast & Brunch"
    }
  },
  {
    "type": "Feature",
    "geometry": {
        "type": "Point",
        "coordinates":  [-111.8683119,33.393794]
    },
    "properties": {
    "business_id":"-0xwm_AwS0d_5rwUprHGuw",
    "name":"Cup O'Karma",
    "city":"Phoenix",
    "attributes.Price Range":"1",
    "review_count":"44",
    "stars":"4",
    "cuisine":"Coffee & Tea"
    }
  },
  {
    "type": "Feature",
    "geometry": {
        "type": "Point",
        "coordinates":  [-112.0740019,33.450218]
    },
    "properties": {
    "business_id":"0YCV8260mMgN0PxuzAtO3g",
    "name":"Subway",
    "city":"Phoenix",
    "attributes.Price Range":"1",
    "review_count":"9",
    "stars":"2",
    "cuisine":"Fast Food"
    }
  },
  {
    "type": "Feature",
    "geometry": {
        "type": "Point",
        "coordinates":  [-111.9241039,33.7799757]
    },
    "properties": {
    "business_id":"0YEbfeYZXkcTwjos9cgaEA",
    "name":"Rubio's",
    "city":"Phoenix",
    "attributes.Price Range":"1",
    "review_count":"23",
    "stars":"4",
    "cuisine":"Mexican"
    }
  },
  {
    "type": "Feature",
    "geometry": {
        "type": "Point",
        "coordinates":  [-112.1905776,33.63838734]
    },
    "properties": {
    "business_id":"0YEYPidJcDh-Hgjwaisi5Q",
    "name":"Black Bear Diner",
    "city":"Phoenix",
    "attributes.Price Range":"2",
    "review_count":"176",
    "stars":"4",
    "cuisine":"Breakfast & Brunch"
    }
  },
  {
    "type": "Feature",
    "geometry": {
        "type": "Point",
        "coordinates":  [-111.9774365,33.33229]
    },
    "properties": {
    "business_id":"0ylC0tsPUY3yaoXRaCDL3Q",
    "name":"Arizona Sandwich Company",
    "city":"Phoenix",
    "attributes.Price Range":"1",
    "review_count":"104",
    "stars":"4",
    "cuisine":"Anonymous"
    }
  },
  {
    "type": "Feature",
    "geometry": {
        "type": "Point",
        "coordinates":  [-112.2742194,33.71296518]
    },
    "properties": {
    "business_id":"0yX5ddNYV864ioYN2UujJw",
    "name":"Papa Murphy's",
    "city":"Phoenix",
    "attributes.Price Range":"2",
    "review_count":"11",
    "stars":"4.5",
    "cuisine":"Pizza"
    }
  },
  {
    "type": "Feature",
    "geometry": {
        "type": "Point",
        "coordinates":  [-111.9270642,33.3048103]
    },
    "properties": {
    "business_id":"0Z6KXCKH7vLi8wgNjmJkjw",
    "name":"Chennai Fusion Grill",
    "city":"Phoenix",
    "attributes.Price Range":"2",
    "review_count":"68",
    "stars":"3.5",
    "cuisine":"Indian"
    }
  },
  {
    "type": "Feature",
    "geometry": {
        "type": "Point",
        "coordinates":  [-111.642235,33.260052]
    },
    "properties": {
    "business_id":"0zcHBms7sK9IYv4zn_qrqQ",
    "name":"Chick-fil-A",
    "city":"Phoenix",
    "attributes.Price Range":"1",
    "review_count":"45",
    "stars":"4",
    "cuisine":"Fast Food"
    }
  },
  {
    "type": "Feature",
    "geometry": {
        "type": "Point",
        "coordinates":  [-111.9241392,33.6246991]
    },
    "properties": {
    "business_id":"0Zec6RiFV6h6TbOFb7xu3A",
    "name":"Zinburger",
    "city":"Phoenix",
    "attributes.Price Range":"2",
    "review_count":"176",
    "stars":"4",
    "cuisine":"Burgers"
    }
  },
  {
    "type": "Feature",
    "geometry": {
        "type": "Point",
        "coordinates":  [-111.8951585,33.46624132]
    },
    "properties": {
    "business_id":"0zHHvaVxvR5BpFXECvNNFQ",
    "name":"El Dorado Bar and Grill",
    "city":"Phoenix",
    "attributes.Price Range":"1",
    "review_count":"35",
    "stars":"4",
    "cuisine":"American (Traditional)"
    }
  },
  {
    "type": "Feature",
    "geometry": {
        "type": "Point",
        "coordinates":  [-112.1122766,33.711091]
    },
    "properties": {
    "business_id":"1_43FZHx3P5D7X-CpIR9WA",
    "name":"Jersey Mike's Subs",
    "city":"Phoenix",
    "attributes.Price Range":"1",
    "review_count":"71",
    "stars":"4",
    "cuisine":"Fast Food"
    }
  },
  {
    "type": "Feature",
    "geometry": {
        "type": "Point",
        "coordinates":  [-111.996308,33.5090177]
    },
    "properties": {
    "business_id":"1_JEa6MI0xl_wlY4gqMHqw",
    "name":"Giant Rustic Pizza",
    "city":"Phoenix",
    "attributes.Price Range":"1",
    "review_count":"94",
    "stars":"4",
    "cuisine":"Pizza"
    }
  },
  {
    "type": "Feature",
    "geometry": {
        "type": "Point",
        "coordinates":  [-111.944403,33.348893]
    },
    "properties": {
    "business_id":"1_siFXaQbxck3tiKRwnq7Q",
    "name":"AZ Bread Co",
    "city":"Phoenix",
    "attributes.Price Range":"1",
    "review_count":"190",
    "stars":"4",
    "cuisine":"Breakfast & Brunch"
    }
  },
  {
    "type": "Feature",
    "geometry": {
        "type": "Point",
        "coordinates":  [-111.9547806,33.82781177]
    },
    "properties": {
    "business_id":"10RoUv7N_K3amPyJ3Ao2YQ",
    "name":"Oregano's Pizza Bistro",
    "city":"Phoenix",
    "attributes.Price Range":"2",
    "review_count":"128",
    "stars":"3",
    "cuisine":"Italian"
    }
  },
  {
    "type": "Feature",
    "geometry": {
        "type": "Point",
        "coordinates":  [-111.9810889,33.4513465]
    },
    "properties": {
    "business_id":"11TvD4sCfA8GEqLDANpbSQ",
    "name":"Los Jarritos Restaurant",
    "city":"Phoenix",
    "attributes.Price Range":"1",
    "review_count":"14",
    "stars":"3.5",
    "cuisine":"Mexican"
    }
  },
  {
    "type": "Feature",
    "geometry": {
        "type": "Point",
        "coordinates":  [-112.0674961,33.4453626]
    },
    "properties": {
    "business_id":"1-1VcGTL3GyCqUpXZLFTZA",
    "name":"Friday's Front Row Sports Grill",
    "city":"Phoenix",
    "attributes.Price Range":"2",
    "review_count":"117",
    "stars":"3",
    "cuisine":"American (Traditional)"
    }
  },
  {
    "type": "Feature",
    "geometry": {
        "type": "Point",
        "coordinates":  [-111.6872197,33.3799806]
    },
    "properties": {
    "business_id":"12srsQVQDykj2LQiCPmLuw",
    "name":"Subway",
    "city":"Phoenix",
    "attributes.Price Range":"1",
    "review_count":"6",
    "stars":"3",
    "cuisine":"Fast Food"
    }
  },
  {
    "type": "Feature",
    "geometry": {
        "type": "Point",
        "coordinates":  [-111.9256121,33.4343165]
    },
    "properties": {
    "business_id":"136zvrfN6Kpr9tFj3OMNUQ",
    "name":"Panchero's Mexican Grill",
    "city":"Phoenix",
    "attributes.Price Range":"1",
    "review_count":"75",
    "stars":"3",
    "cuisine":"Mexican"
    }
  },
  {
    "type": "Feature",
    "geometry": {
        "type": "Point",
        "coordinates":  [-112.391812,33.6094038]
    },
    "properties": {
    "business_id":"13ApBJpR1W7cke__9j74Bw",
    "name":"Jack in the Box",
    "city":"Phoenix",
    "attributes.Price Range":"1",
    "review_count":"11",
    "stars":"2",
    "cuisine":"Fast Food"
    }
  },
  {
    "type": "Feature",
    "geometry": {
        "type": "Point",
        "coordinates":  [-111.492045,33.456993]
    },
    "properties": {
    "business_id":"13PvboYaAq6zLO6vbiU9WA",
    "name":"The Miners Grill",
    "city":"Phoenix",
    "attributes.Price Range":"2",
    "review_count":"5",
    "stars":"4.5",
    "cuisine":"Burgers"
    }
  },
  {
    "type": "Feature",
    "geometry": {
        "type": "Point",
        "coordinates":  [-112.0044909,33.4667273]
    },
    "properties": {
    "business_id":"1-40wS09HcJnJIKRVWRL6g",
    "name":"Pizza Patrn",
    "city":"Phoenix",
    "attributes.Price Range":"1",
    "review_count":"8",
    "stars":"3",
    "cuisine":"Pizza"
    }
  },
  {
    "type": "Feature",
    "geometry": {
        "type": "Point",
        "coordinates":  [-111.7573862,33.307307]
    },
    "properties": {
    "business_id":"14K90G-hbfk795NY7cKxMA",
    "name":"Blue 32 Sports Grill",
    "city":"Phoenix",
    "attributes.Price Range":"2",
    "review_count":"256",
    "stars":"4",
    "cuisine":"American (New)"
    }
  },
  {
    "type": "Feature",
    "geometry": {
        "type": "Point",
        "coordinates":  [-112.0736457,33.3811211]
    },
    "properties": {
    "business_id":"14NSxaXBNspIVnsrMYJZVw",
    "name":"Poncho's",
    "city":"Phoenix",
    "attributes.Price Range":"1",
    "review_count":"198",
    "stars":"3.5",
    "cuisine":"Mexican"
    }
  },
  {
    "type": "Feature",
    "geometry": {
        "type": "Point",
        "coordinates":  [-111.803674,33.4229592]
    },
    "properties": {
    "business_id":"15lx030rVuzdWXWRZVCGAw",
    "name":"Subway",
    "city":"Phoenix",
    "attributes.Price Range":"1",
    "review_count":"3",
    "stars":"3",
    "cuisine":"Fast Food"
    }
  },
  {
    "type": "Feature",
    "geometry": {
        "type": "Point",
        "coordinates":  [-111.9624951,33.3633651]
    },
    "properties": {
    "business_id":"166feddAL9YETnzTSUJ8aA",
    "name":"Del Yaqui",
    "city":"Phoenix",
    "attributes.Price Range":"1",
    "review_count":"31",
    "stars":"4",
    "cuisine":"Mexican"
    }
  },
  {
    "type": "Feature",
    "geometry": {
        "type": "Point",
        "coordinates":  [-112.3470813,33.450373]
    },
    "properties": {
    "business_id":"16myUO2uD2vdFeuQu3OWhg",
    "name":"Papa John's Pizza",
    "city":"Phoenix",
    "attributes.Price Range":"2",
    "review_count":"14",
    "stars":"2",
    "cuisine":"Pizza"
    }
  },
  {
    "type": "Feature",
    "geometry": {
        "type": "Point",
        "coordinates":  [-112.2559513,33.4502133]
    },
    "properties": {
    "business_id":"16vBOBiEkjuJV88nVK4Tvw",
    "name":"Taqueria Y Cenaduria Culiacan",
    "city":"Phoenix",
    "attributes.Price Range":"1",
    "review_count":"15",
    "stars":"3.5",
    "cuisine":"Mexican"
    }
  },
  {
    "type": "Feature",
    "geometry": {
        "type": "Point",
        "coordinates":  [-111.9251918,33.45031391]
    },
    "properties": {
    "business_id":"16VWORTVIsJ6QZt3HTxj3w",
    "name":"Shahrazad Middle Eastern Cuisine",
    "city":"Phoenix",
    "attributes.Price Range":"2",
    "review_count":"58",
    "stars":"4",
    "cuisine":"Middle Eastern"
    }
  },
  {
    "type": "Feature",
    "geometry": {
        "type": "Point",
        "coordinates":  [-111.9316221,33.58192596]
    },
    "properties": {
    "business_id":"17DI33J8TkcfzyoiIYLQIw",
    "name":"Thai House",
    "city":"Phoenix",
    "attributes.Price Range":"2",
    "review_count":"177",
    "stars":"4",
    "cuisine":"Thai"
    }
  },
  {
    "type": "Feature",
    "geometry": {
        "type": "Point",
        "coordinates":  [-111.680414,33.5822724]
    },
    "properties": {
    "business_id":"17oqHZBoPEsASMB402ns5w",
    "name":"Silver Platter",
    "city":"Phoenix",
    "attributes.Price Range":"1",
    "review_count":"3",
    "stars":"4.5",
    "cuisine":"Burgers"
    }
  },
  {
    "type": "Feature",
    "geometry": {
        "type": "Point",
        "coordinates":  [-112.3524951,33.63938104]
    },
    "properties": {
    "business_id":"18FygiATTjYHyLz8A5Prcw",
    "name":"Pizza Hut",
    "city":"Phoenix",
    "attributes.Price Range":"1",
    "review_count":"9",
    "stars":"1.5",
    "cuisine":"Italian"
    }
  },
  {
    "type": "Feature",
    "geometry": {
        "type": "Point",
        "coordinates":  [-111.8062891,33.38336856]
    },
    "properties": {
    "business_id":"18oecrR4bf-ctLvVGEaSLg",
    "name":"In-N-Out Burger",
    "city":"Phoenix",
    "attributes.Price Range":"1",
    "review_count":"67",
    "stars":"4",
    "cuisine":"Burgers"
    }
  },
  {
    "type": "Feature",
    "geometry": {
        "type": "Point",
        "coordinates":  [-112.04698,33.523984]
    },
    "properties": {
    "business_id":"18TUn9oiW0k0yB6lheiOvw",
    "name":"TEXAZ Grill",
    "city":"Phoenix",
    "attributes.Price Range":"2",
    "review_count":"399",
    "stars":"4",
    "cuisine":"Steakhouses"
    }
  },
  {
    "type": "Feature",
    "geometry": {
        "type": "Point",
        "coordinates":  [-112.0583729,33.4364731]
    },
    "properties": {
    "business_id":"19hZVXTJ8nGUMBsuIfgm5g",
    "name":"Petes Fish & Chips",
    "city":"Phoenix",
    "attributes.Price Range":"1",
    "review_count":"20",
    "stars":"3",
    "cuisine":"American (Traditional)"
    }
  },
  {
    "type": "Feature",
    "geometry": {
        "type": "Point",
        "coordinates":  [-112.1759478,33.5382958]
    },
    "properties": {
    "business_id":"19yh2tk7HXOBG8GU0_OrKQ",
    "name":"Caramba Fresh Mexican Food",
    "city":"Phoenix",
    "attributes.Price Range":"1",
    "review_count":"26",
    "stars":"3.5",
    "cuisine":"Mexican"
    }
  },
  {
    "type": "Feature",
    "geometry": {
        "type": "Point",
        "coordinates":  [-111.7549661,33.3513607]
    },
    "properties": {
    "business_id":"1aOiRg6IJSimaexJspyvfQ",
    "name":"Hunbertos",
    "city":"Phoenix",
    "attributes.Price Range":"1",
    "review_count":"34",
    "stars":"4",
    "cuisine":"Mexican"
    }
  },
  {
    "type": "Feature",
    "geometry": {
        "type": "Point",
        "coordinates":  [-111.6863894,33.32042512]
    },
    "properties": {
    "business_id":"1AR1oHvHVPihkNWNyQ7wtA",
    "name":"McDonald's",
    "city":"Phoenix",
    "attributes.Price Range":"1",
    "review_count":"16",
    "stars":"3",
    "cuisine":"Burgers"
    }
  },
  {
    "type": "Feature",
    "geometry": {
        "type": "Point",
        "coordinates":  [-111.2956,33.82662424]
    },
    "properties": {
    "business_id":"1b4gwgMI7611EYfSuXbA6w",
    "name":"Butchers Hook Restaurant",
    "city":"Phoenix",
    "attributes.Price Range":"1",
    "review_count":"4",
    "stars":"3",
    "cuisine":"American (Traditional)"
    }
  },
  {
    "type": "Feature",
    "geometry": {
        "type": "Point",
        "coordinates":  [-112.134388,33.58216]
    },
    "properties": {
    "business_id":"1B5vpxnZYXKil_k5d5MpEQ",
    "name":"Taco Bell",
    "city":"Phoenix",
    "attributes.Price Range":"1",
    "review_count":"11",
    "stars":"3.5",
    "cuisine":"Fast Food"
    }
  },
  {
    "type": "Feature",
    "geometry": {
        "type": "Point",
        "coordinates":  [-112.3039232,33.4344308]
    },
    "properties": {
    "business_id":"1bLnV57i6UYvG_FSG-7WTg",
    "name":"New Wok Chinese Food",
    "city":"Phoenix",
    "attributes.Price Range":"1",
    "review_count":"20",
    "stars":"3",
    "cuisine":"Chinese"
    }
  },
  {
    "type": "Feature",
    "geometry": {
        "type": "Point",
        "coordinates":  [-112.077144,33.479996]
    },
    "properties": {
    "business_id":"-1bOb2izeJBZjHC7NWxiPA",
    "name":"First Watch",
    "city":"Phoenix",
    "attributes.Price Range":"1",
    "review_count":"134",
    "stars":"4",
    "cuisine":"Breakfast & Brunch"
    }
  },
  {
    "type": "Feature",
    "geometry": {
        "type": "Point",
        "coordinates":  [-111.9140909,33.4666105]
    },
    "properties": {
    "business_id":"1BR0QpmxXzRZv14wvW5rtQ",
    "name":"Subway",
    "city":"Phoenix",
    "attributes.Price Range":"1",
    "review_count":"6",
    "stars":"4",
    "cuisine":"Fast Food"
    }
  },
  {
    "type": "Feature",
    "geometry": {
        "type": "Point",
        "coordinates":  [-112.0643676,33.51684459]
    },
    "properties": {
    "business_id":"1br0wXRxz1pf98BDYTGcsw",
    "name":"Pita Jungle",
    "city":"Phoenix",
    "attributes.Price Range":"2",
    "review_count":"45",
    "stars":"4",
    "cuisine":"Vegetarian"
    }
  },
  {
    "type": "Feature",
    "geometry": {
        "type": "Point",
        "coordinates":  [-112.0121895,33.6259655]
    },
    "properties": {
    "business_id":"1cGZU2gDewDfEu-bBMZEgQ",
    "name":"Los Betos Mexican Food",
    "city":"Phoenix",
    "attributes.Price Range":"1",
    "review_count":"32",
    "stars":"3.5",
    "cuisine":"Mexican"
    }
  },
  {
    "type": "Feature",
    "geometry": {
        "type": "Point",
        "coordinates":  [-111.9037798,33.43325796]
    },
    "properties": {
    "business_id":"1CNKe3H07sLu6rigOpAYsg",
    "name":"Dave & Buster's",
    "city":"Phoenix",
    "attributes.Price Range":"2",
    "review_count":"227",
    "stars":"3.5",
    "cuisine":"American (Traditional)"
    }
  },
  {
    "type": "Feature",
    "geometry": {
        "type": "Point",
        "coordinates":  [-112.1827954,33.5414876]
    },
    "properties": {
    "business_id":"1cTI09YZ3uRPXt3YkznuPg",
    "name":"A Touch of European Cafe",
    "city":"Phoenix",
    "attributes.Price Range":"2",
    "review_count":"104",
    "stars":"4.5",
    "cuisine":"Anonymous"
    }
  },
  {
    "type": "Feature",
    "geometry": {
        "type": "Point",
        "coordinates":  [-111.9701785,33.4108625]
    },
    "properties": {
    "business_id":"1DjRf3AdYpdlC1Df9KD6rA",
    "name":"Fire + Spice",
    "city":"Phoenix",
    "attributes.Price Range":"2",
    "review_count":"39",
    "stars":"3.5",
    "cuisine":"Steakhouses"
    }
  },
  {
    "type": "Feature",
    "geometry": {
        "type": "Point",
        "coordinates":  [-111.8742864,33.31946313]
    },
    "properties": {
    "business_id":"1Duul3qCnLrNak1Np-iHfw",
    "name":"Pita Jungle",
    "city":"Phoenix",
    "attributes.Price Range":"2",
    "review_count":"332",
    "stars":"4",
    "cuisine":"Vegetarian"
    }
  },
  {
    "type": "Feature",
    "geometry": {
        "type": "Point",
        "coordinates":  [-111.924865,33.4214242]
    },
    "properties": {
    "business_id":"1epH2hHsZ2HoSU8ugWWSOw",
    "name":"Juba",
    "city":"Phoenix",
    "attributes.Price Range":"1",
    "review_count":"38",
    "stars":"4",
    "cuisine":"Mediterranean"
    }
  },
  {
    "type": "Feature",
    "geometry": {
        "type": "Point",
        "coordinates":  [-112.1339382,33.86538929]
    },
    "properties": {
    "business_id":"1f0g466Geu4nDdJhYQ_Vhg",
    "name":"Q to U BBQ",
    "city":"Phoenix",
    "attributes.Price Range":"2",
    "review_count":"128",
    "stars":"4",
    "cuisine":"Barbeque"
    }
  },
  {
    "type": "Feature",
    "geometry": {
        "type": "Point",
        "coordinates":  [-111.8571446,33.3905538]
    },
    "properties": {
    "business_id":"1FCf9zA5Pylc4PDcrDqsZQ",
    "name":"Smashburger",
    "city":"Phoenix",
    "attributes.Price Range":"2",
    "review_count":"19",
    "stars":"4",
    "cuisine":"Burgers"
    }
  },
  {
    "type": "Feature",
    "geometry": {
        "type": "Point",
        "coordinates":  [-111.7912952,33.37847176]
    },
    "properties": {
    "business_id":"1F-pelV0fTduYV_vCrvjLA",
    "name":"Black Bear Diner",
    "city":"Phoenix",
    "attributes.Price Range":"2",
    "review_count":"248",
    "stars":"4",
    "cuisine":"Breakfast & Brunch"
    }
  },
  {
    "type": "Feature",
    "geometry": {
        "type": "Point",
        "coordinates":  [-111.8986781,33.29985719]
    },
    "properties": {
    "business_id":"1ggcLvWPBDWnp5MVTRnoRg",
    "name":"The Old Spaghetti Factory",
    "city":"Phoenix",
    "attributes.Price Range":"2",
    "review_count":"175",
    "stars":"3",
    "cuisine":"Italian"
    }
  },
  {
    "type": "Feature",
    "geometry": {
        "type": "Point",
        "coordinates":  [-112.0310131,33.37869892]
    },
    "properties": {
    "business_id":"1h88e48P845HXL4SVHzX0g",
    "name":"Five Guys Burgers and Fries",
    "city":"Phoenix",
    "attributes.Price Range":"2",
    "review_count":"11",
    "stars":"3.5",
    "cuisine":"Burgers"
    }
  },
  {
    "type": "Feature",
    "geometry": {
        "type": "Point",
        "coordinates":  [-112.3078847,33.44856088]
    },
    "properties": {
    "business_id":"1H9FepbMY9ckFfeY1ciHIA",
    "name":"Tortas Y Raspados La Cascada",
    "city":"Phoenix",
    "attributes.Price Range":"1",
    "review_count":"27",
    "stars":"4.5",
    "cuisine":"Mexican"
    }
  },
  {
    "type": "Feature",
    "geometry": {
        "type": "Point",
        "coordinates":  [-112.030859,33.6698624]
    },
    "properties": {
    "business_id":"1hcGT6I1vAIH_pZuyud0HQ",
    "name":"Brickyard Sports Bar and Grill",
    "city":"Phoenix",
    "attributes.Price Range":"2",
    "review_count":"3",
    "stars":"2",
    "cuisine":"American (New)"
    }
  },
  {
    "type": "Feature",
    "geometry": {
        "type": "Point",
        "coordinates":  [-111.8695932,33.4144416]
    },
    "properties": {
    "business_id":"1HNEj6kcEw369RX9Vlcixw",
    "name":"Filiberto's Mexican Food",
    "city":"Phoenix",
    "attributes.Price Range":"1",
    "review_count":"20",
    "stars":"3",
    "cuisine":"Mexican"
    }
  },
  {
    "type": "Feature",
    "geometry": {
        "type": "Point",
        "coordinates":  [-112.392055,33.6080718]
    },
    "properties": {
    "business_id":"1hTBIFVqHfI1hRpdS8iIgg",
    "name":"Vogue Bistro",
    "city":"Phoenix",
    "attributes.Price Range":"2",
    "review_count":"272",
    "stars":"3.5",
    "cuisine":"Seafood"
    }
  },
  {
    "type": "Feature",
    "geometry": {
        "type": "Point",
        "coordinates":  [-111.790038,33.2609865]
    },
    "properties": {
    "business_id":"1hyJEY-DGD898iN6S-AmtQ",
    "name":"Rosatis Pizza",
    "city":"Phoenix",
    "attributes.Price Range":"2",
    "review_count":"37",
    "stars":"2.5",
    "cuisine":"Pizza"
    }
  },
  {
    "type": "Feature",
    "geometry": {
        "type": "Point",
        "coordinates":  [-112.134374,33.485845]
    },
    "properties": {
    "business_id":"1iJA5fYMDLjCE8PBrt4kMg",
    "name":"Lunch Time Cafe",
    "city":"Phoenix",
    "attributes.Price Range":"1",
    "review_count":"23",
    "stars":"4.5",
    "cuisine":"Cafes"
    }
  },
  {
    "type": "Feature",
    "geometry": {
        "type": "Point",
        "coordinates":  [-112.0318686,33.5071655]
    },
    "properties": {
    "business_id":"1iw4g7qcKua2-V06RQpyCw",
    "name":"Dagwoods",
    "city":"Phoenix",
    "attributes.Price Range":"0",
    "review_count":"4",
    "stars":"2.5",
    "cuisine":"Anonymous"
    }
  },
  {
    "type": "Feature",
    "geometry": {
        "type": "Point",
        "coordinates":  [-111.940894,33.421667]
    },
    "properties": {
    "business_id":"1jKsbHOTMjUU5KVBAVaiAQ",
    "name":"Chick-fil-A",
    "city":"Phoenix",
    "attributes.Price Range":"1",
    "review_count":"59",
    "stars":"4.5",
    "cuisine":"Fast Food"
    }
  },
  {
    "type": "Feature",
    "geometry": {
        "type": "Point",
        "coordinates":  [-111.9276449,33.3183691]
    },
    "properties": {
    "business_id":"1JXCQLdUZSWJqghmLovl4w",
    "name":"Cafe Cornucopia",
    "city":"Phoenix",
    "attributes.Price Range":"2",
    "review_count":"112",
    "stars":"4.5",
    "cuisine":"Cafes"
    }
  },
  {
    "type": "Feature",
    "geometry": {
        "type": "Point",
        "coordinates":  [-111.8497417,33.3936015]
    },
    "properties": {
    "business_id":"1kDAS9KY0BgtIrjhbQsCkQ",
    "name":"Mariscos El Rey",
    "city":"Phoenix",
    "attributes.Price Range":"2",
    "review_count":"10",
    "stars":"3",
    "cuisine":"Seafood"
    }
  },
  {
    "type": "Feature",
    "geometry": {
        "type": "Point",
        "coordinates":  [-112.0118669,33.4660406]
    },
    "properties": {
    "business_id":"1kMR_HUA8i-wYOJFZfLhBA",
    "name":"32nd Cafe",
    "city":"Phoenix",
    "attributes.Price Range":"1",
    "review_count":"11",
    "stars":"4.5",
    "cuisine":"Mexican"
    }
  },
  {
    "type": "Feature",
    "geometry": {
        "type": "Point",
        "coordinates":  [-112.0116371,33.62811677]
    },
    "properties": {
    "business_id":"1ksEqDWneqp8vn1m2zSueg",
    "name":"Pho A.V",
    "city":"Phoenix",
    "attributes.Price Range":"1",
    "review_count":"147",
    "stars":"4",
    "cuisine":"Vietnamese"
    }
  },
  {
    "type": "Feature",
    "geometry": {
        "type": "Point",
        "coordinates":  [-112.5578844,33.4329838]
    },
    "properties": {
    "business_id":"1l6dBf8GkQTShXvoH0Of-g",
    "name":"Subway",
    "city":"Phoenix",
    "attributes.Price Range":"1",
    "review_count":"15",
    "stars":"3",
    "cuisine":"Fast Food"
    }
  },
  {
    "type": "Feature",
    "geometry": {
        "type": "Point",
        "coordinates":  [-111.928799,33.8284049]
    },
    "properties": {
    "business_id":"1lS4-F785wYGn6u2dzUgow",
    "name":"Le Sans Souci Restaurant",
    "city":"Phoenix",
    "attributes.Price Range":"3",
    "review_count":"52",
    "stars":"3.5",
    "cuisine":"French"
    }
  },
  {
    "type": "Feature",
    "geometry": {
        "type": "Point",
        "coordinates":  [-112.0285133,33.51145453]
    },
    "properties": {
    "business_id":"1M4oczf2lmkdgbrJ3J7OqA",
    "name":"Christopher's and Crush Lounge",
    "city":"Phoenix",
    "attributes.Price Range":"3",
    "review_count":"248",
    "stars":"4",
    "cuisine":"American (New)"
    }
  },
  {
    "type": "Feature",
    "geometry": {
        "type": "Point",
        "coordinates":  [-112.0740978,33.5130852]
    },
    "properties": {
    "business_id":"1MQmujTuU-3qPdoogdA8CQ",
    "name":"Joyride Taco House",
    "city":"Phoenix",
    "attributes.Price Range":"2",
    "review_count":"592",
    "stars":"4",
    "cuisine":"Mexican"
    }
  },
  {
    "type": "Feature",
    "geometry": {
        "type": "Point",
        "coordinates":  [-112.3720507,33.6548855]
    },
    "properties": {
    "business_id":"1mzM1-IeDhPOmWXaHOUbmw",
    "name":"Burger King",
    "city":"Phoenix",
    "attributes.Price Range":"1",
    "review_count":"6",
    "stars":"3.5",
    "cuisine":"Burgers"
    }
  },
  {
    "type": "Feature",
    "geometry": {
        "type": "Point",
        "coordinates":  [-112.341953,33.508441]
    },
    "properties": {
    "business_id":"1n1nP996n7h36qKMlukAQg",
    "name":"Federico's Mexican Food",
    "city":"Phoenix",
    "attributes.Price Range":"1",
    "review_count":"45",
    "stars":"3.5",
    "cuisine":"Mexican"
    }
  },
  {
    "type": "Feature",
    "geometry": {
        "type": "Point",
        "coordinates":  [-111.9264513,33.4915705]
    },
    "properties": {
    "business_id":"1NarMOcLeTcMY8TOUew_zA",
    "name":"Salty Senorita",
    "city":"Phoenix",
    "attributes.Price Range":"2",
    "review_count":"236",
    "stars":"3",
    "cuisine":"Mexican"
    }
  },
  {
    "type": "Feature",
    "geometry": {
        "type": "Point",
        "coordinates":  [-111.835271,33.414713]
    },
    "properties": {
    "business_id":"1NferxQuGCPNBPVRBbdLpg",
    "name":"Queens Pizzeria and Cafe",
    "city":"Phoenix",
    "attributes.Price Range":"1",
    "review_count":"187",
    "stars":"3.5",
    "cuisine":"Italian"
    }
  },
  {
    "type": "Feature",
    "geometry": {
        "type": "Point",
        "coordinates":  [-112.2189079,33.5962275]
    },
    "properties": {
    "business_id":"1N-JHg3TBXq8-Sx-vt6rdw",
    "name":"Julioberto's",
    "city":"Phoenix",
    "attributes.Price Range":"2",
    "review_count":"11",
    "stars":"3",
    "cuisine":"Fast Food"
    }
  },
  {
    "type": "Feature",
    "geometry": {
        "type": "Point",
        "coordinates":  [-112.0479137,33.4500392]
    },
    "properties": {
    "business_id":"1nq6zzJuVgwaHtXau97_Iw",
    "name":"Asadero Norte De Sonora",
    "city":"Phoenix",
    "attributes.Price Range":"1",
    "review_count":"72",
    "stars":"4.5",
    "cuisine":"Mexican"
    }
  },
  {
    "type": "Feature",
    "geometry": {
        "type": "Point",
        "coordinates":  [-112.0410308,33.4659221]
    },
    "properties": {
    "business_id":"1nsxori657cAx2hiyYb4rA",
    "name":"El Ranchero Mexican Restaurant",
    "city":"Phoenix",
    "attributes.Price Range":"1",
    "review_count":"12",
    "stars":"4.5",
    "cuisine":"Mexican"
    }
  },
  {
    "type": "Feature",
    "geometry": {
        "type": "Point",
        "coordinates":  [-112.0479886,33.4790158]
    },
    "properties": {
    "business_id":"1NZLxU5WvB5roPFzneAlLw",
    "name":"Barrio Caf",
    "city":"Phoenix",
    "attributes.Price Range":"2",
    "review_count":"963",
    "stars":"4",
    "cuisine":"Cafes"
    }
  },
  {
    "type": "Feature",
    "geometry": {
        "type": "Point",
        "coordinates":  [-112.0998501,33.5520874]
    },
    "properties": {
    "business_id":"1O0iRKvVFWoO4Mz7tLA7fg",
    "name":"De La Ana European Delicatessen Store",
    "city":"Phoenix",
    "attributes.Price Range":"0",
    "review_count":"4",
    "stars":"4",
    "cuisine":"Anonymous"
    }
  },